Id,Country,City,Latitude,Longitude,Population,IdProche,NCTNumber,Disease,Condition,Intervention,Phases,Enrollment,PrincipalInvestigationLocation
1,united states of america,new york,40.7141667,-74.0063889,8107916,1,NCT02369926,Multiple Sclerosis,RRMS,Other,Phase 2,20,Icahn School of Medicine at Mount Sinai
2,italy,sassari,40.727222,8.560278,119187,0,NCT02010398,Multiple Sclerosis,All,Other,Phase 1-Phase 2,45,Department of Biomedical Sciences- University of Sassari
3,italy,sassari,40.727222,8.560278,119187,0,NCT02010398,Multiple Sclerosis,All,Other,Phase 1-Phase 2,45,Department of Clinical and Experimental Medicine - University of Sassari
4,italy,sassari,40.727222,8.560278,119187,0,NCT02010398,Multiple Sclerosis,All,Other,Phase 1-Phase 2,45,Department of Surgery - Microsurgery and Medical-Surgical Specialties
5,united states of america,baltimore,39.2902778,-76.6125,610892,5,NCT02346734,Multiple Sclerosis,All,Device,N/A,170,University of Maryland
6,brazil,sao paulo,-23.473293,-46.665803,10021437,6,NCT02489877,Multiple Sclerosis,All,Other,N/A,84,Faculdade de Ciências Médicas da Santa Casa de São Paulo
7,italy,milan,45.466667,9.2,1156903,7,NCT02364505,Multiple Sclerosis,All,Behavioral,N/A,120,Fondazione Don Carlo Gnocchi Onlus
8,united states of america,salt lake city,40.7608333,-111.8902778,178026,0,NCT01737372,Multiple Sclerosis,All,Other,Phase 1,45,Rocky Mountain MS Clinic
9,finland,turku,60.45,22.283333,175944,0,NCT02403570,Multiple Sclerosis,RRMS,Other,N/A,80,Division of Clinical Neurosciences - Turku University Hospital
10,united states of america,kenmore,47.7575,-122.2427778,19284,73,NCT01711255,Multiple Sclerosis,All,Other,N/A,100,Bastyr University Clinical Research Center
11,germany,rostock,54.083333,12.133333,196833,0,NCT01271699,Multiple Sclerosis,All,Other,N/A,250,University of Rostock - Albrecht-Kossel-Institute for Neuroregeneration
12,germany,aachen,50.770833,6.105278,251104,16,NCT01271699,Multiple Sclerosis,All,Other,N/A,250,Universitätsklinikum Aachen - Klink für Neurologie
13,germany,asbach,49.816667,7.283333,171,0,NCT01271699,Multiple Sclerosis,All,Other,N/A,250,Kamillusklinik - Abtl. Neurologie
14,germany,berlin,52.516667,13.4,3398362,14,NCT01271699,Multiple Sclerosis,All,Other,N/A,250,Berlin Charite - Klinisches und experimentelles Forschungszentrum für Multiple Sklerose
15,germany,berlin,52.516667,13.4,3398362,15,NCT01271699,Multiple Sclerosis,All,Other,N/A,250,Jüdisches Krankenhaus Berlin - Abt. Neurologie
16,germany,dusseldorf,51.216667,6.766667,577139,16,NCT01271699,Multiple Sclerosis,All,Other,N/A,250,HHU Düsseldorf - Klinik und Poliklinik für Neurologie
17,germany,essen,51.45,7.016667,576914,17,NCT01271699,Multiple Sclerosis,All,Other,N/A,250,Alfried Krupp Krankenhaus Rüttenscheid - Abt. Neurologie
18,germany,giessen,50.583333,8.65,83280,33,NCT01271699,Multiple Sclerosis,All,Other,N/A,250,Universitätsklinikum Gießen und Marburg - Neurovaskuläre AG
19,germany,isselburg,51.833333,6.466667,11274,17,NCT01271699,Multiple Sclerosis,All,Other,N/A,250,Augustahospital AnholT GmbH - Abt. Neurologie
20,germany,munster,51.966667,7.633333,272452,1655,NCT01271699,Multiple Sclerosis,All,Other,N/A,250,Universität Münster - Klinik & Poliklinik für Neurologie
21,germany,trier,49.75,6.633333,100649,0,NCT01271699,Multiple Sclerosis,All,Other,N/A,250,Krankenhaus der Bamherzigen Brüder Trier - Neurologische Klinik
22,germany,ulm,48.4,10,120745,768,NCT01271699,Multiple Sclerosis,All,Other,N/A,250,Universitätsklinikum Ulm - Klinik für Neurologie
23,germany,wurzburg,49.787778,9.936111,134499,0,NCT01271699,Multiple Sclerosis,All,Other,N/A,250,Universitätsklinik Würzburg - Neurologische Klinik
24,france,montpellier,43.61092,3.87723,238887,0,NCT02580669,Multiple Sclerosis,Progressive Multiple Sclerosis,Other,N/A,66,Hopital Gui de Chauliac -Service de Neurologie
25,united kingdom,bristol,51.45,-2.583333,430714,25,NCT01815632,Multiple Sclerosis,Progressive Multiple Sclerosis,Stem Cells,Phase 2,80,University of Bristol & North Bristol NHS Trust
26,united states of america,los angeles,34.0522222,-118.2427778,3877129,26,NCT01466114,Multiple Sclerosis,RRMS,Drug,Phase 2,64,University of California - Los Angeles
27,united states of america,aurora,39.7294444,-104.8313889,299780,286,NCT01466114,Multiple Sclerosis,RRMS,Drug,Phase 2,64,The University of Colorado Denver
28,united states of america,albuquerque,35.0844444,-106.6505556,487378,28,NCT01466114,Multiple Sclerosis,RRMS,Drug,Phase 2,64,The University of New Mexico
29,united states of america,philadelphia,39.9522222,-75.1641667,1453268,29,NCT01466114,Multiple Sclerosis,RRMS,Drug,Phase 2,64,The University of Pennsylvania
30,spain,barcelona,41.398371,2.1741,1570378,30,NCT02495766,Multiple Sclerosis,RRMS,Drug,Phase 1-Phase 2,8,Hospital Vall Hebron
31,germany,muenster,51.966667,7.633333,302178,1655,NCT02461069,Multiple Sclerosis,RRMS,Drug,Phase 4,75,University Hospital Muenster
32,germany,bonn,50.733333,7.1,314081,807,NCT02461069,Multiple Sclerosis,RRMS,Drug,Phase 4,75,Neurologisches Studienzentrum Dr. Schmidt/Dr. Neudecker/ Dr. Viehbahn/Dr. Kronenberger
33,germany,frankfurt,50.116667,8.683333,648034,33,NCT02461069,Multiple Sclerosis,RRMS,Drug,Phase 4,75,Neurologische Gemeinschaftspraxis im Bienenkorbhaus
34,germany,heidelberg,49.416667,8.7,144703,33,NCT02461069,Multiple Sclerosis,RRMS,Drug,Phase 4,75,Neurologische Univ.-Klinik
35,germany,mainz,50,8.271111,187940,33,NCT02461069,Multiple Sclerosis,RRMS,Drug,Phase 4,75,Klinik und Poliklinik für Neurologie - Universitätsklinikum Mainz
36,germany,osnabruck,52.266667,8.05,165372,0,NCT02461069,Multiple Sclerosis,RRMS,Drug,Phase 4,75,MVZ-Neurologie Klinikum Osnabrück GmbH
37,denmark,copenhagen,55.666667,12.583333,1089958,37,NCT02760082,Multiple Sclerosis,All,Other,N/A,500,University of Copenhagen
38,united states of america,waltham,42.3763889,-71.2361111,58570,45,NCT02486562,Multiple Sclerosis,All,Behavioral,N/A,20000,Accelerated Cure Project
39,united states of america,san francisco,37.775,-122.4183333,732072,39,NCT01396343,Multiple Sclerosis,CIS,Other,Phase 1,1920,UCSF Pediatric MS Center
40,united states of america,birmingham,33.5205556,-86.8025,231621,0,NCT01396343,Multiple Sclerosis,CIS,Other,Phase 1,1920,Center for pediatric-onset demyelinating diseases at the Children's Hospital of Alabama - Birmingham
41,united states of america,san bernardino,34.1083333,-117.2888889,202381,0,NCT01396343,Multiple Sclerosis,CIS,Other,Phase 1,1920,Pediatric MS Clinic - Children's Hospital - Loma Linda University
42,united states of america,aurora,39.7294444,-104.8313889,299780,286,NCT01396343,Multiple Sclerosis,CIS,Other,Phase 1,1920,Children's Hospital Colorado - University of Colorado School of Medicine
43,united states of america,washington,38.895,-77.0366667,552433,43,NCT01396343,Multiple Sclerosis,CIS,Other,Phase 1,1920,Pediatric MS Clinic - Children's National Medical Center
44,united states of america,chicago,41.85,-87.65,2841952,44,NCT01396343,Multiple Sclerosis,CIS,Other,Phase 1,1920,Pediatric MS Clinic - Ann & Robert H. Lurie Children's Hospital of Chicago
45,united states of america,boston,42.3583333,-71.0602778,571281,45,NCT01396343,Multiple Sclerosis,CIS,Other,Phase 1,1920,Partners Pediatric MS Center at the Massachusetts General Hospital for Children
46,united states of america,boston,42.3583333,-71.0602778,571281,46,NCT01396343,Multiple Sclerosis,CIS,Other,Phase 1,1920,Pediatric MS Clinic - Children's Hospital Boston
47,united states of america,rochester,44.0216667,-92.4697222,96355,0,NCT01396343,Multiple Sclerosis,CIS,Other,Phase 1,1920,Regional Pediatric MS Center at Mayo Clinic
48,united states of america,saint louis,38.6272222,-90.1977778,320916,0,NCT01396343,Multiple Sclerosis,CIS,Other,Phase 1,1920,Pediatric MS Clinic - Washington University School of Medicine
49,united states of america,buffalo,42.8863889,-78.8786111,279557,0,NCT01396343,Multiple Sclerosis,CIS,Other,Phase 1,1920,Pediatric MS Center of the Jacobs Neurological Institute - University of Buffalo
50,united states of america,stony brook,40.9255556,-73.1413889,13620,1,NCT01396343,Multiple Sclerosis,CIS,Other,Phase 1,1920,Stony Brook National Pediatric MS Center
51,united states of america,cleveland,41.4994444,-81.6955556,449514,51,NCT01396343,Multiple Sclerosis,CIS,Other,Phase 1,1920,The Cleveland Clinic
52,united states of america,philadelphia,39.9522222,-75.1641667,1453268,52,NCT01396343,Multiple Sclerosis,CIS,Other,Phase 1,1920,Pediatric MS Clinic - Children's Hospital of Philadelphia
53,united states of america,dallas,32.7833333,-96.8,1211704,53,NCT01396343,Multiple Sclerosis,CIS,Other,Phase 1,1920,Pediatric MS Center - University of Texas - Southwestern Medical Center
54,united states of america,houston,29.7630556,-95.3630556,2027712,54,NCT01396343,Multiple Sclerosis,CIS,Other,Phase 1,1920,The Blue Bird Circle Clinic for MS at Texas Children's Hospital
55,united states of america,salt lake city,40.7608333,-111.8902778,178026,0,NCT01396343,Multiple Sclerosis,CIS,Other,Phase 1,1920,Pediatric Neurology Clinic - Primary Children's Hospital
56,italy,ferrara,44.833333,11.583333,131252,0,NCT02421744,Multiple Sclerosis,All,Behavioral,Phase 3,60,Ferrara University Hospital
57,italy,pisa,43.716667,10.383333,83803,0,NCT02421744,Multiple Sclerosis,All,Behavioral,Phase 3,60,Azienda Ospedaliera Universitaria Pisana
58,united states of america,baltimore,39.2902778,-76.6125,610892,58,NCT02538094,Multiple Sclerosis,Progressive Multiple Sclerosis,Device,N/A,50,Johns Hopkins University
59,switzerland,valens,46.966581,9.477047,400,0,NCT02408367,Multiple Sclerosis,All,Behavioral,Phase 1,20,Kliniken-Valens
60,ireland,merrion,53.295,-6.2372222,2386,61,NCT02208050,Multiple Sclerosis,Progressive Multiple Sclerosis,Drug,Phase 4,80,St Vincent's University Hospital
61,ireland,dublin,53.3330556,-6.2488889,1024027,61,NCT02208050,Multiple Sclerosis,Progressive Multiple Sclerosis,Drug,Phase 4,80,St. Vincents University Hospital
62,united kingdom,london,51.514125,-0.093689,7421228,62,NCT02490046,Multiple Sclerosis,All,Other,Phase 1,20,The National Hospital for Neurology and Neurosurgery
63,united kingdom,bristol,51.45,-2.583333,430714,63,NCT01932593,Multiple Sclerosis,All,Stem Cells,Phase 1,6,North Bristol NHS Trust
64,france,lille,50.632971,3.058585,189746,0,NCT02008669,Multiple Sclerosis,All,Other,Phase 1,360,Lille Catholic University
65,france,caen,49.197188,-0.326822,115358,0,NCT02008669,Multiple Sclerosis,All,Other,Phase 1,360,Centre Hospitalier Universitaire de Caen
66,france,maubeuge,50.278499,3.974426,33017,1012,NCT02008669,Multiple Sclerosis,All,Other,Phase 1,360,Centre Hospitalier de Sambre-Avenois
67,france,raimbeaucourt,50.434656,3.093332,4335,0,NCT02008669,Multiple Sclerosis,All,Other,Phase 1,360,Centre Hélène Borel
68,france,tourcoing,50.723907,3.161168,93835,0,NCT02008669,Multiple Sclerosis,All,Other,Phase 1,360,Centre Hospitalier Dron de Tourcoing
69,france,douai,50.372362,3.088996,43404,0,NCT02008669,Multiple Sclerosis,All,Other,Phase 1,360,Centre Hospitalier de Douai
70,france,amiens,49.9,2.3,138816,0,NCT02008669,Multiple Sclerosis,All,Other,Phase 1,360,Centre Hospitalier Universitaire d'Amiens
71,united states of america,brookline,42.3316667,-71.1216667,56079,45,NCT02649985,Multiple Sclerosis,All,Drug,Phase 1-Phase 2,50,Brigham and Women's Hospital
72,germany,darmstadt,49.870556,8.649444,139757,33,NCT02064816,Multiple Sclerosis,RRMS,Drug,Phase 4,218,Merck KGaA
73,united states of america,seattle,47.6063889,-122.3308333,569369,73,NCT02106052,Multiple Sclerosis,All,Other,N/A,125,University of Washington
74,switzerland,bern,46.916667,7.466667,123018,0,NCT02440516,Multiple Sclerosis,All,Other,N/A,62,Department of Neurology - University Hospital Bern
75,switzerland,luzern,47.083333,8.266667,57269,0,NCT02440516,Multiple Sclerosis,All,Other,N/A,62,Department of Neurology - Cantonal hospital Luzern
76,italy,ferrara,44.833333,11.583333,131252,0,NCT01883310,Multiple Sclerosis,RRMS,Device,Phase 2,30,Ferrara University Hospital
77,united states of america,columbus,39.9611111,-82.9988889,736836,77,NCT02258217,Multiple Sclerosis,RRMS,Drug,Phase 3,30,The Ohio State University Wexner Medical Center
78,italy,verona,45.45,11,247082,0,NCT02459821,Multiple Sclerosis,All,Other,N/A,40,Azienta Ospedaliera - SSO Rehabilitation Unit - Verona
79,italy,verona,45.45,11,247082,0,NCT02459821,Multiple Sclerosis,All,Other,N/A,40,prof. Smania Nicola
80,united states of america,round rock,30.5080556,-97.6786111,88653,0,NCT02738775,Multiple Sclerosis,RRMS,Biological,Phase 2,40,TG Therapeutics Investigational Trial Site
81,united states of america,phoenix,33.4483333,-112.0733333,1428509,81,NCT02738775,Multiple Sclerosis,RRMS,Biological,Phase 2,40,TG Therapeutics Investigational Trial Site
82,united states of america,fort collins,40.5852778,-105.0838889,129252,286,NCT02738775,Multiple Sclerosis,RRMS,Biological,Phase 2,40,TG Therapeutics Investigational Trial Site
83,united states of america,san antonio,29.4238889,-98.4933333,1256810,83,NCT02738775,Multiple Sclerosis,RRMS,Biological,Phase 2,40,TG Therapeutics Investigational Trial Site
84,france,garches,48.842257,2.182317,18170,158,NCT01871818,Multiple Sclerosis,Progressive Multiple Sclerosis,Behavioral,Phase 3,240,Hôpital RAYMOND POINCARE
85,germany,muenster,51.966667,7.633333,302178,1655,NCT02361697,Multiple Sclerosis,CIS,Other,N/A,15,University Hospital Muenster
86,france,bordeaux,44.840439,-0.5805,219311,0,NCT01442233,Multiple Sclerosis,RRMS,Other,Phase 3,80,Service de Neurologie - Hôpital Pellegrin - CHU de Bordeaux
87,france,clermont-ferrand,45.779657,3.086281,137364,0,NCT01442233,Multiple Sclerosis,RRMS,Other,Phase 3,80,Service de neurologie - CHU de Clermont-Ferrand
88,france,dijon,47.316667,5.016667,153692,0,NCT01442233,Multiple Sclerosis,RRMS,Other,Phase 3,80,CHU de Dijon
89,france,lille,50.632971,3.058585,189746,0,NCT01442233,Multiple Sclerosis,RRMS,Other,Phase 3,80,Service de Neurologie - CHRU de Lille
90,france,nancy,48.69211,6.187756,106857,0,NCT01442233,Multiple Sclerosis,RRMS,Other,Phase 3,80,Service de Neurologie - CHU de nancy
91,france,nantes,47.216509,-1.552379,284677,0,NCT01442233,Multiple Sclerosis,RRMS,Other,Phase 3,80,Service de neurologie - CHU de Nantes
92,france,strasbourg,48.600381,7.787355,273506,0,NCT01442233,Multiple Sclerosis,RRMS,Other,Phase 3,80,Service de Neurologie - CHU de Strasbourg
93,united states of america,bethesda,38.9805556,-77.1005556,52801,43,NCT02423083,Multiple Sclerosis,RRMS,Drug,Phase 1,12,National Institute of Neurological Disorders and Stroke (NINDS)
94,united states of america,new york,40.7141667,-74.0063889,8107916,94,NCT02549703,Multiple Sclerosis,All,Other,N/A,45,Icahn School of Medicine at Mount Sinai
95,united states of america,portland,45.5236111,-122.675,540513,95,NCT02057159,Multiple Sclerosis,Progressive Multiple Sclerosis,Biological,Phase 2-Phase 3,200,Center Oregon Health & Science University
96,united states of america,portland,45.5236111,-122.675,540513,96,NCT02200718,Multiple Sclerosis,All,Biological,Phase 1,12,Center Oregon Health & Science University
97,france,rennes,48.111981,-1.674291,213334,0,NCT02652013,Multiple Sclerosis,All,Other,N/A,80,Pôle Saint Hélier
98,united states of america,aurora,39.7294444,-104.8313889,299780,286,NCT01698086,Multiple Sclerosis,All,Other,N/A,88,University of Colorado Denver
99,united states of america,houston,29.7630556,-95.3630556,2027712,99,NCT02519244,Multiple Sclerosis,All,Device,N/A,10,The University of Texas Health Science Center - Houston
100,united states of america,portland,45.5236111,-122.675,540513,100,NCT02133664,Multiple Sclerosis,All,Drug,Phase 1-Phase 2,53,Center Oregon Health & Science University
101,united states of america,phoenix,33.4483333,-112.0733333,1428509,101,NCT02634307,Multiple Sclerosis,RRMS,Drug,Phase 3,600,Alkermes Investigational Site
102,united states of america,long beach,33.7669444,-118.1883333,482618,102,NCT02634307,Multiple Sclerosis,RRMS,Drug,Phase 3,600,Alkermes Investigational Site
103,united states of america,centennial,39.5791667,-104.8763889,96930,286,NCT02634307,Multiple Sclerosis,RRMS,Drug,Phase 3,600,Alkermes Investigational Site
104,united states of america,stamford,41.0533333,-73.5391667,121230,1,NCT02634307,Multiple Sclerosis,RRMS,Drug,Phase 3,600,Alkermes Investigational Site
105,united states of america,patchogue,40.7655556,-73.0155556,12030,0,NCT02634307,Multiple Sclerosis,RRMS,Drug,Phase 3,600,Alkermes Investigational Site
106,united states of america,charlotte,35.2269444,-80.8433333,598351,106,NCT02634307,Multiple Sclerosis,RRMS,Drug,Phase 3,600,Alkermes Investigational Site
107,united states of america,indian land,35.002492,-80.856553,0,107,NCT02634307,Multiple Sclerosis,RRMS,Drug,Phase 3,600,Alkermes Investigational Site
108,united states of america,knoxville,35.9605556,-83.9208333,172474,0,NCT02634307,Multiple Sclerosis,RRMS,Drug,Phase 3,600,Alkermes Investigational Site
109,united states of america,houston,29.7630556,-95.3630556,2027712,109,NCT02634307,Multiple Sclerosis,RRMS,Drug,Phase 3,600,Alkermes Investigational Site
110,united states of america,salt lake city,40.7608333,-111.8902778,178026,0,NCT02634307,Multiple Sclerosis,RRMS,Drug,Phase 3,600,Alkermes Investigational Site
111,united states of america,richmond,37.5536111,-77.4605556,190886,0,NCT02634307,Multiple Sclerosis,RRMS,Drug,Phase 3,600,Alkermes Investigational Site
112,united states of america,west orange,40.7986111,-74.2394444,48131,1,NCT02301260,Multiple Sclerosis,All,Behavioral,N/A,100,Kessler Foundation
113,united states of america,new orleans,29.9544444,-90.075,459336,113,NCT02011451,Multiple Sclerosis,RRMS,Drug,Phase 2,48,LSU Health Sciences Center
114,germany,berlin,52.516667,13.4,3398362,114,NCT02740296,Multiple Sclerosis,RRMS,Other,N/A,200,Charité - Universitätsmedizin Berlin
115,united states of america,durham,35.9938889,-78.8988889,204734,0,NCT01776060,Multiple Sclerosis,Progressive Multiple Sclerosis,Other,N/A,100,The Stedman Center on the Duke Center for Living Campus
116,united states of america,concord,35.4086111,-80.5797222,60592,106,NCT01776060,Multiple Sclerosis,Progressive Multiple Sclerosis,Other,N/A,100,NE Neurology
117,united states of america,raleigh,35.7719444,-78.6388889,338759,0,NCT01776060,Multiple Sclerosis,Progressive Multiple Sclerosis,Other,N/A,100,Raleigh Neurology Associates
118,united states of america,saint louis,38.6272222,-90.1977778,320916,0,NCT02411838,Multiple Sclerosis,RRMS,Other,N/A,16,Washington University School of Medicine
119,united states of america,portland,45.5236111,-122.675,540513,119,NCT01970410,Multiple Sclerosis,RRMS,Drug,Phase 4,70,Providence Multiple Sclerosis Center
120,united states of america,phoenix,33.4483333,-112.0733333,1428509,120,NCT01970410,Multiple Sclerosis,RRMS,Drug,Phase 4,70,Phoenix Neurological Associates - Ltd
121,united states of america,latham,42.7469444,-73.7594444,20736,0,NCT01970410,Multiple Sclerosis,RRMS,Drug,Phase 4,70,Multiple Sclerosis Center of Northeastern New York
122,united states of america,portland,45.5236111,-122.675,540513,122,NCT01909492,Multiple Sclerosis,RRMS,Other,N/A,30,Providence Multiple Sclerosis Center
123,cayman islands,george town,19.3,-81.3833333,27340,0,NCT02326935,Multiple Sclerosis,All,Stem Cells,Phase 1,100,The Da Vinci Center
124,united kingdom,sheffield,53.366667,-1.5,447048,124,NCT02702804,Multiple Sclerosis,All,Other,N/A,12,Sheffield Teaching Hospitals NHS FT
125,united kingdom,sheffield,53.366667,-1.5,447048,125,NCT02702804,Multiple Sclerosis,All,Other,N/A,12,Royal Hallamshire Hospital
126,israel,ramat gan,32.080556,34.814167,126864,1105,NCT02580435,Multiple Sclerosis,All,Other,N/A,520,Sheba Medical Center
127,united states of america,durham,35.9938889,-78.8988889,204734,0,NCT01723709,Multiple Sclerosis,All,Other,N/A,1000,The Stedman Center on the Duke Center for Living Campus
128,united states of america,concord,35.4086111,-80.5797222,60592,106,NCT01723709,Multiple Sclerosis,All,Other,N/A,1000,Carolinas Medical Center Northeast Medical Arts Building
129,united states of america,concord,35.4086111,-80.5797222,60592,106,NCT01723709,Multiple Sclerosis,All,Other,N/A,1000,NorthEast Neurology - Concord
130,united states of america,davidson,35.4991667,-80.8488889,10944,106,NCT01723709,Multiple Sclerosis,All,Other,N/A,1000,Ada Jenkins Center
131,united states of america,kannapolis,35.4872222,-80.6219444,38748,106,NCT01723709,Multiple Sclerosis,All,Other,N/A,1000,Kannapolis Internal Medicine
132,united states of america,raleigh,35.7719444,-78.6388889,338759,0,NCT01723709,Multiple Sclerosis,All,Other,N/A,1000,Raleigh Neurology Associates
133,germany,berlin,52.516667,13.4,3398362,133,NCT01371071,Multiple Sclerosis,CIS,Other,Phase 1,200,Department of Neurology - Charité - Universitätsmedizin Berlin
134,germany,berlin,52.516667,13.4,3398362,134,NCT01371071,Multiple Sclerosis,CIS,Other,Phase 1,200,NeuroCure Clinical Research Center - Charité - Universitätsmedizin Berlin
135,united states of america,portland,45.5236111,-122.675,540513,135,NCT02315872,Multiple Sclerosis,RRMS,Drug,Phase 3,90,Providence St. Vincent Medical Center
136,united states of america,cullman,34.1747222,-86.8436111,14796,0,NCT02315872,Multiple Sclerosis,RRMS,Drug,Phase 3,90,North Central Neurology Associates - PC
137,united states of america,medford,42.3266667,-122.8744444,69638,0,NCT02315872,Multiple Sclerosis,RRMS,Drug,Phase 3,90,Providence Medical Group - Medford Neurology
138,united states of america,salt lake city,40.7608333,-111.8902778,178026,0,NCT02315872,Multiple Sclerosis,RRMS,Drug,Phase 3,90,Rocky Mountain Research Group
139,united states of america,seattle,47.6063889,-122.3308333,569369,139,NCT02315872,Multiple Sclerosis,RRMS,Drug,Phase 3,90,Swedish Medical Center
140,united states of america,tacoma,47.2530556,-122.4430556,196957,73,NCT02315872,Multiple Sclerosis,RRMS,Drug,Phase 3,90,MultiCare Health System -- Institute for Research and Innovation
141,united states of america,lutherville,39.4211111,-76.6263889,6504,5,NCT02633033,Multiple Sclerosis,RRMS,Drug,N/A,260,Mallinckrodt Investigational Site
142,united states of america,bala-cynwyd,40.0075,-75.2344444,9619,29,NCT02633033,Multiple Sclerosis,RRMS,Drug,N/A,260,Mallinckrodt Investigational Site
143,united states of america,knoxville,35.9605556,-83.9208333,172474,0,NCT02633033,Multiple Sclerosis,RRMS,Drug,N/A,260,Mallinckrodt Investigational Site
144,united states of america,west orange,40.7986111,-74.2394444,48131,1,NCT02496416,Multiple Sclerosis,All,Behavioral,N/A,15,Kessler Foundation
145,france,toulouse,43.599516,1.433188,411145,145,NCT02403947,Multiple Sclerosis,All,Stem Cells,Phase 1-Phase 2,12,Purpan Hospital
146,france,rennes,48.111981,-1.674291,213334,0,NCT02117375,Multiple Sclerosis,RRMS,Device,N/A,100,CHU Rennes
147,france,bordeaux,44.840439,-0.5805,219311,0,NCT02391064,Multiple Sclerosis,All,Behavioral,N/A,470,CHU de Bordeaux
148,france,caen,49.197188,-0.326822,115358,0,NCT02391064,Multiple Sclerosis,All,Behavioral,N/A,470,CHU de Caen
149,france,clermont-ferrand,45.779657,3.086281,137364,0,NCT02391064,Multiple Sclerosis,All,Behavioral,N/A,470,CHU de Clermont-Ferrand
150,france,dijon,47.316667,5.016667,153692,0,NCT02391064,Multiple Sclerosis,All,Behavioral,N/A,470,Hôpital du Bocage
151,france,dunkerque,51.05,2.366667,90995,0,NCT02391064,Multiple Sclerosis,All,Behavioral,N/A,470,CH de Dunkerque
152,france,lille,50.632971,3.058585,189746,0,NCT02391064,Multiple Sclerosis,All,Behavioral,N/A,470,Centre Hospitalier Saint Vincent de Paul
153,france,lille,50.632971,3.058585,189746,0,NCT02391064,Multiple Sclerosis,All,Behavioral,N/A,470,Hôpital Roger Salengro
154,france,marseille,43.285413,5.37606,792823,154,NCT02391064,Multiple Sclerosis,All,Behavioral,N/A,470,CHU de Marseille
155,france,montpellier,43.61092,3.87723,238887,0,NCT02391064,Multiple Sclerosis,All,Behavioral,N/A,470,CHU Montpellier
156,france,nancy,48.69211,6.187756,106857,0,NCT02391064,Multiple Sclerosis,All,Behavioral,N/A,470,CHU de Nancy
157,france,nice,43.713644,7.25952,341621,0,NCT02391064,Multiple Sclerosis,All,Behavioral,N/A,470,CHU de Nice
158,france,paris,48.866667,2.333333,2110694,158,NCT02391064,Multiple Sclerosis,All,Behavioral,N/A,470,Hôpital Tenon
159,france,poissy,48.92902,2.049521,35663,158,NCT02391064,Multiple Sclerosis,All,Behavioral,N/A,470,Hôpital de Poissy Saint Germain
160,france,reims,49.25,4.033333,192688,0,NCT02391064,Multiple Sclerosis,All,Behavioral,N/A,470,CHU de Reims
161,france,strasbourg,48.600381,7.787355,273506,0,NCT02391064,Multiple Sclerosis,All,Behavioral,N/A,470,CHU de Strasbourg
162,united states of america,bethesda,38.9805556,-77.1005556,52801,43,NCT01326715,Multiple Sclerosis,All,Drug,Phase 1,30,National Institutes of Health Clinical Center
163,sweden,stockholm,59.333333,18.05,1253309,163,NCT01730547,Multiple Sclerosis,All,Stem Cells,Phase 1-Phase 2,15,Karolinska Institute - Karolinska University Hospital Solna
164,france,nancy,48.69211,6.187756,106857,0,NCT01659593,Multiple Sclerosis,All,Other,Phase 2,140,University hospital Nancy
165,canada,ottawa,45.416667,-75.7,874433,165,NCT01891071,Multiple Sclerosis,All,Other,N/A,35,The Ottawa Hospital
166,canada,greenfield park,45.5,-73.483333,16969,747,NCT01891071,Multiple Sclerosis,All,Other,N/A,35,Hôpital Charles-LeMoyne
167,united states of america,stratford,39.8266667,-75.0158333,7040,29,NCT02227524,Multiple Sclerosis,All,Other,N/A,30,Rowan University School of Osteopathic Medicine
168,united states of america,centennial,39.5791667,-104.8763889,96930,286,NCT02601885,Multiple Sclerosis,All,Drug,Phase 1,60,Site Reference ID/Investigator# 141561
169,united states of america,baltimore,39.2902778,-76.6125,610892,169,NCT02601885,Multiple Sclerosis,All,Drug,Phase 1,60,Site Reference ID/Investigator# 141563
170,united states of america,boulder,40.015,-105.27,91521,286,NCT02152085,Multiple Sclerosis,All,Device,N/A,30,University of Colorado
171,germany,ulm,48.4,10,120745,768,NCT02671682,Multiple Sclerosis,CIS,Other,N/A,60,Department of Neurology - University of Ulm
172,germany,tubingen,48.533333,9.05,83815,768,NCT02686788,Multiple Sclerosis,RRMS,Drug,Phase 2,55,UKT - Universitätsklinikum Tübingen
173,germany,frankfurt,50.116667,8.683333,648034,173,NCT02686788,Multiple Sclerosis,RRMS,Drug,Phase 2,55,Goethe-Universität Frankfurt am Main
174,germany,munster,51.966667,7.633333,272452,1655,NCT02686788,Multiple Sclerosis,RRMS,Drug,Phase 2,55,Universitätsklinikum Münster - Klinik für Allgemeine Neurologie
175,germany,hamburg,53.55,10,1733846,175,NCT02686788,Multiple Sclerosis,RRMS,Drug,Phase 2,55,Universitätsklinikum Hamburg-Eppendorf - Neurologische Poliklinik - Multiple Sklerose Tagesklinik und Ambulanz
176,united states of america,bethesda,38.9805556,-77.1005556,52801,43,NCT02504840,Multiple Sclerosis,CIS,Other,N/A,1300,National Institutes of Health Clinical Center
177,india,pune,18.533333,73.866667,2935968,177,NCT01883661,Multiple Sclerosis,All,Stem Cells,Phase 1-Phase 2,15,Chaitanya Hospital
178,france,lomme,50.643579,2.987148,29084,0,NCT02726672,Multiple Sclerosis,All,Device,N/A,60,Hospital Group of the Catholic Institute of Lille
179,united states of america,lubbock,33.5777778,-101.8547222,211387,0,NCT02418897,Multiple Sclerosis,RRMS,Behavioral,N/A,40,Texas Tech University Health Sciences Center
180,united kingdom,irvine,55.6,-4.666667,32749,499,NCT02264704,Multiple Sclerosis,All,Other,N/A,63,Douglas Grant Rehabilitation Centre - Ayrshire Central Hospital
181,united states of america,birmingham,33.5205556,-86.8025,231621,0,NCT01892722,Multiple Sclerosis,RRMS,Drug,Phase 3,190,Novartis Investigative Site
182,united states of america,little rock,34.7463889,-92.2894444,184217,0,NCT01892722,Multiple Sclerosis,RRMS,Drug,Phase 3,190,Novartis Investigative Site
183,united states of america,los angeles,34.0522222,-118.2427778,3877129,183,NCT01892722,Multiple Sclerosis,RRMS,Drug,Phase 3,190,Novartis Investigative Site
184,united states of america,san francisco,37.775,-122.4183333,732072,184,NCT01892722,Multiple Sclerosis,RRMS,Drug,Phase 3,190,Novartis Investigative Site
185,united states of america,miami,25.7738889,-80.1938889,382894,0,NCT01892722,Multiple Sclerosis,RRMS,Drug,Phase 3,190,Novartis Investigative Site
186,united states of america,orlando,28.5380556,-81.3794444,207970,0,NCT01892722,Multiple Sclerosis,RRMS,Drug,Phase 3,190,Novartis Investigative Site
187,united states of america,tallahassee,30.4380556,-84.2808333,153583,0,NCT01892722,Multiple Sclerosis,RRMS,Drug,Phase 3,190,Novartis Investigative Site
188,united states of america,chicago,41.85,-87.65,2841952,188,NCT01892722,Multiple Sclerosis,RRMS,Drug,Phase 3,190,Novartis Investigative Site
189,united states of america,boston,42.3583333,-71.0602778,571281,189,NCT01892722,Multiple Sclerosis,RRMS,Drug,Phase 3,190,Novartis Investigative Site
190,united states of america,boston,42.3583333,-71.0602778,571281,190,NCT01892722,Multiple Sclerosis,RRMS,Drug,Phase 3,190,Novartis Investigative Site
191,united states of america,detroit,42.3313889,-83.0458333,884941,191,NCT01892722,Multiple Sclerosis,RRMS,Drug,Phase 3,190,Novartis Investigative Site
192,united states of america,new brunswick,40.4861111,-74.4522222,50633,1,NCT01892722,Multiple Sclerosis,RRMS,Drug,Phase 3,190,Novartis Investigative Site
193,united states of america,rochester,44.0216667,-92.4697222,96355,0,NCT01892722,Multiple Sclerosis,RRMS,Drug,Phase 3,190,Novartis Investigative Site
194,united states of america,stony brook,40.9255556,-73.1413889,13620,1,NCT01892722,Multiple Sclerosis,RRMS,Drug,Phase 3,190,Novartis Investigative Site
195,united states of america,chapel hill,35.9130556,-79.0561111,47529,0,NCT01892722,Multiple Sclerosis,RRMS,Drug,Phase 3,190,Novartis Investigative Site
196,united states of america,philadelphia,39.9522222,-75.1641667,1453268,196,NCT01892722,Multiple Sclerosis,RRMS,Drug,Phase 3,190,Novartis Investigative Site
197,united states of america,greenville,34.8525,-82.3941667,55559,0,NCT01892722,Multiple Sclerosis,RRMS,Drug,Phase 3,190,Novartis Investigative Site
198,united states of america,san antonio,29.4238889,-98.4933333,1256810,198,NCT01892722,Multiple Sclerosis,RRMS,Drug,Phase 3,190,Novartis Investigative Site
199,united states of america,salt lake city,40.7608333,-111.8902778,178026,0,NCT01892722,Multiple Sclerosis,RRMS,Drug,Phase 3,190,Novartis Investigative Site
200,australia,melbourne,-37.813938,144.963425,3730212,200,NCT01892722,Multiple Sclerosis,RRMS,Drug,Phase 3,190,Novartis Investigative Site
201,austria,vienna,48.2,16.366667,1569315,201,NCT01892722,Multiple Sclerosis,RRMS,Drug,Phase 3,190,Novartis Investigative Site
202,belarus,minsk,53.9,27.5666667,1742123,202,NCT01892722,Multiple Sclerosis,RRMS,Drug,Phase 3,190,Novartis Investigative Site
203,brazil,belo horizonte,-19.916667,-43.933333,2373255,203,NCT01892722,Multiple Sclerosis,RRMS,Drug,Phase 3,190,Novartis Investigative Site
204,brazil,rio de janeiro,-22.9,-43.233333,6023742,204,NCT01892722,Multiple Sclerosis,RRMS,Drug,Phase 3,190,Novartis Investigative Site
205,brazil,sao paulo,-23.473293,-46.665803,10021437,205,NCT01892722,Multiple Sclerosis,RRMS,Drug,Phase 3,190,Novartis Investigative Site
206,brazil,goiania,-16.666667,-49.266667,1171209,206,NCT01892722,Multiple Sclerosis,RRMS,Drug,Phase 3,190,Novartis Investigative Site
207,bulgaria,sofia,42.6833333,23.3166667,1062065,207,NCT01892722,Multiple Sclerosis,RRMS,Drug,Phase 3,190,Novartis Investigative Site
208,canada,calgary,51.083333,-114.083333,968475,208,NCT01892722,Multiple Sclerosis,RRMS,Drug,Phase 3,190,Novartis Investigative Site
209,canada,ottawa,45.416667,-75.7,874433,209,NCT01892722,Multiple Sclerosis,RRMS,Drug,Phase 3,190,Novartis Investigative Site
210,croatia,osijek,45.5511111,18.6938889,88141,0,NCT01892722,Multiple Sclerosis,RRMS,Drug,Phase 3,190,Novartis Investigative Site
211,estonia,tallinn,59.4338889,24.7280556,394023,349,NCT01892722,Multiple Sclerosis,RRMS,Drug,Phase 3,190,Novartis Investigative Site
212,france,bordeaux,44.840439,-0.5805,219311,0,NCT01892722,Multiple Sclerosis,RRMS,Drug,Phase 3,190,Novartis Investigative Site
213,france,le kremlin-bicetre,48.814713,2.360728,27194,158,NCT01892722,Multiple Sclerosis,RRMS,Drug,Phase 3,190,Novartis Investigative Site
214,france,marseille,43.285413,5.37606,792823,214,NCT01892722,Multiple Sclerosis,RRMS,Drug,Phase 3,190,Novartis Investigative Site
215,france,montpellier,43.61092,3.87723,238887,0,NCT01892722,Multiple Sclerosis,RRMS,Drug,Phase 3,190,Novartis Investigative Site
216,france,toulouse,43.599516,1.433188,411145,216,NCT01892722,Multiple Sclerosis,RRMS,Drug,Phase 3,190,Novartis Investigative Site
217,germany,bochum,51.483333,7.216667,387061,17,NCT01892722,Multiple Sclerosis,RRMS,Drug,Phase 3,190,Novartis Investigative Site
218,germany,bonn,50.733333,7.1,314081,807,NCT01892722,Multiple Sclerosis,RRMS,Drug,Phase 3,190,Novartis Investigative Site
219,germany,dresden,51.05,13.75,480801,219,NCT01892722,Multiple Sclerosis,RRMS,Drug,Phase 3,190,Novartis Investigative Site
220,germany,erlangen,49.589722,11.003889,102781,777,NCT01892722,Multiple Sclerosis,RRMS,Drug,Phase 3,190,Novartis Investigative Site
221,germany,essen,51.45,7.016667,576914,221,NCT01892722,Multiple Sclerosis,RRMS,Drug,Phase 3,190,Novartis Investigative Site
222,germany,freiburg,48,7.85,213920,0,NCT01892722,Multiple Sclerosis,RRMS,Drug,Phase 3,190,Novartis Investigative Site
223,germany,gottingen,51.533333,9.933333,123570,1516,NCT01892722,Multiple Sclerosis,RRMS,Drug,Phase 3,190,Novartis Investigative Site
224,germany,hamburg,53.55,10,1733846,224,NCT01892722,Multiple Sclerosis,RRMS,Drug,Phase 3,190,Novartis Investigative Site
225,germany,munich,48.15,11.5833,1246133,225,NCT01892722,Multiple Sclerosis,RRMS,Drug,Phase 3,190,Novartis Investigative Site
226,germany,muenster,51.966667,7.633333,302178,1655,NCT01892722,Multiple Sclerosis,RRMS,Drug,Phase 3,190,Novartis Investigative Site
227,italy,bari,41.133333,16.85,303049,0,NCT01892722,Multiple Sclerosis,RRMS,Drug,Phase 3,190,Novartis Investigative Site
228,italy,montichiari,45.416667,10.383333,21041,0,NCT01892722,Multiple Sclerosis,RRMS,Drug,Phase 3,190,Novartis Investigative Site
229,italy,catania,37.5,15.1,307331,0,NCT01892722,Multiple Sclerosis,RRMS,Drug,Phase 3,190,Novartis Investigative Site
230,italy,milan,45.466667,9.2,1156903,230,NCT01892722,Multiple Sclerosis,RRMS,Drug,Phase 3,190,Novartis Investigative Site
231,italy,cefalu,38.033333,14.016667,14334,1523,NCT01892722,Multiple Sclerosis,RRMS,Drug,Phase 3,190,Novartis Investigative Site
232,italy,rome,41.9,12.483333,2643736,232,NCT01892722,Multiple Sclerosis,RRMS,Drug,Phase 3,190,Novartis Investigative Site
233,italy,gallarate,45.666667,8.783333,48529,7,NCT01892722,Multiple Sclerosis,RRMS,Drug,Phase 3,190,Novartis Investigative Site
234,italy,naples,40.833333,14.25,981284,234,NCT01892722,Multiple Sclerosis,RRMS,Drug,Phase 3,190,Novartis Investigative Site
235,latvia,riga,56.95,24.1,742570,235,NCT01892722,Multiple Sclerosis,RRMS,Drug,Phase 3,190,Novartis Investigative Site
236,lithuania,kaunas,54.9,23.9,374655,0,NCT01892722,Multiple Sclerosis,RRMS,Drug,Phase 3,190,Novartis Investigative Site
237,mexico,mexico,19.434167,-99.138611,8720916,237,NCT01892722,Multiple Sclerosis,RRMS,Drug,Phase 3,190,Novartis Investigative Site
238,mexico,mexico,19.434167,-99.138611,8720916,238,NCT01892722,Multiple Sclerosis,RRMS,Drug,Phase 3,190,Novartis Investigative Site
239,mexico,mexico,19.434167,-99.138611,8720916,239,NCT01892722,Multiple Sclerosis,RRMS,Drug,Phase 3,190,Novartis Investigative Site
240,mexico,mexico,19.434167,-99.138611,8720916,240,NCT01892722,Multiple Sclerosis,RRMS,Drug,Phase 3,190,Novartis Investigative Site
241,netherlands,rotterdam,51.916667,4.5,603851,241,NCT01892722,Multiple Sclerosis,RRMS,Drug,Phase 3,190,Novartis Investigative Site
242,poland,lodz,51.75,19.466667,715360,242,NCT01892722,Multiple Sclerosis,RRMS,Drug,Phase 3,190,Novartis Investigative Site
243,poland,lublin,51.25,22.566667,360044,0,NCT01892722,Multiple Sclerosis,RRMS,Drug,Phase 3,190,Novartis Investigative Site
244,poland,poznan,52.416667,16.966667,570352,244,NCT01892722,Multiple Sclerosis,RRMS,Drug,Phase 3,190,Novartis Investigative Site
245,poland,wroclaw,51.1,17.033333,634893,245,NCT01892722,Multiple Sclerosis,RRMS,Drug,Phase 3,190,Novartis Investigative Site
246,united states of america,santurce,18.1972222,-67.1405556,94067,0,NCT01892722,Multiple Sclerosis,RRMS,Drug,Phase 3,190,Novartis Investigative Site
247,romania,bucharest,44.433333,26.1,1877155,247,NCT01892722,Multiple Sclerosis,RRMS,Drug,Phase 3,190,Novartis Investigative Site
248,russia,moscow,55.752222,37.615556,10381288,248,NCT01892722,Multiple Sclerosis,RRMS,Drug,Phase 3,190,Novartis Investigative Site
249,russia,kazan,55.78874,49.122144,1104750,249,NCT01892722,Multiple Sclerosis,RRMS,Drug,Phase 3,190,Novartis Investigative Site
250,russia,moscow,55.752222,37.615556,10381288,250,NCT01892722,Multiple Sclerosis,RRMS,Drug,Phase 3,190,Novartis Investigative Site
251,russia,novosibirsk,55.0415,82.9346,1419016,251,NCT01892722,Multiple Sclerosis,RRMS,Drug,Phase 3,190,Novartis Investigative Site
252,russia,saint petersburg,59.894444,30.264167,4039751,252,NCT01892722,Multiple Sclerosis,RRMS,Drug,Phase 3,190,Novartis Investigative Site
253,serbia,belgrade,44.818611,20.468056,1115200,253,NCT01892722,Multiple Sclerosis,RRMS,Drug,Phase 3,190,Novartis Investigative Site
254,serbia,kragujevac,44.016667,20.916667,149275,0,NCT01892722,Multiple Sclerosis,RRMS,Drug,Phase 3,190,Novartis Investigative Site
255,serbia,novi sad,45.251667,19.836944,194405,253,NCT01892722,Multiple Sclerosis,RRMS,Drug,Phase 3,190,Novartis Investigative Site
256,slovakia,bratislava,48.15,17.1166667,423737,256,NCT01892722,Multiple Sclerosis,RRMS,Drug,Phase 3,190,Novartis Investigative Site
257,spain,malaga,36.726666,-4.434802,557875,257,NCT01892722,Multiple Sclerosis,RRMS,Drug,Phase 3,190,Novartis Investigative Site
258,spain,sevilla,37.382408,-5.976133,686647,258,NCT01892722,Multiple Sclerosis,RRMS,Drug,Phase 3,190,Novartis Investigative Site
259,spain,barcelona,41.398371,2.1741,1570378,259,NCT01892722,Multiple Sclerosis,RRMS,Drug,Phase 3,190,Novartis Investigative Site
260,spain,valencia,39.466667,-0.366667,769897,260,NCT01892722,Multiple Sclerosis,RRMS,Drug,Phase 3,190,Novartis Investigative Site
261,spain,bilboa,43.260919,-2.938764,345141,0,NCT01892722,Multiple Sclerosis,RRMS,Drug,Phase 3,190,Novartis Investigative Site
262,spain,madrid,40.408566,-3.69222,3102644,262,NCT01892722,Multiple Sclerosis,RRMS,Drug,Phase 3,190,Novartis Investigative Site
263,sweden,lund,55.7,13.183333,76263,37,NCT01892722,Multiple Sclerosis,RRMS,Drug,Phase 3,190,Novartis Investigative Site
264,turkey,ankara,39.911652,32.840305,3519177,264,NCT01892722,Multiple Sclerosis,RRMS,Drug,Phase 3,190,Novartis Investigative Site
265,turkey,ankara,39.911652,32.840305,3519177,265,NCT01892722,Multiple Sclerosis,RRMS,Drug,Phase 3,190,Novartis Investigative Site
266,turkey,samsun,41.286667,36.33,394261,0,NCT01892722,Multiple Sclerosis,RRMS,Drug,Phase 3,190,Novartis Investigative Site
267,turkey,balcova,38.388578,27.056201,77843,1122,NCT01892722,Multiple Sclerosis,RRMS,Drug,Phase 3,190,Novartis Investigative Site
268,turkey,istanbul,41.018611,28.964722,9797536,268,NCT01892722,Multiple Sclerosis,RRMS,Drug,Phase 3,190,Novartis Investigative Site
269,turkey,konak,38.4,27.1,390682,1122,NCT01892722,Multiple Sclerosis,RRMS,Drug,Phase 3,190,Novartis Investigative Site
270,ukraine,cherkasy,49.428536,32.06207,297566,0,NCT01892722,Multiple Sclerosis,RRMS,Drug,Phase 3,190,Novartis Investigative Site
271,ukraine,dnipropetrovsk,48.46298,35.039043,979046,271,NCT01892722,Multiple Sclerosis,RRMS,Drug,Phase 3,190,Novartis Investigative Site
272,ukraine,kharkiv,49.980814,36.252718,1430885,272,NCT01892722,Multiple Sclerosis,RRMS,Drug,Phase 3,190,Novartis Investigative Site
273,ukraine,kharkiv,49.980814,36.252718,1430885,273,NCT01892722,Multiple Sclerosis,RRMS,Drug,Phase 3,190,Novartis Investigative Site
274,ukraine,kiev,50.433333,30.516667,2514227,274,NCT01892722,Multiple Sclerosis,RRMS,Drug,Phase 3,190,Novartis Investigative Site
275,ukraine,lviv,49.840661,24.030451,729429,275,NCT01892722,Multiple Sclerosis,RRMS,Drug,Phase 3,190,Novartis Investigative Site
276,ukraine,odessa,46.463934,30.738551,1016515,276,NCT01892722,Multiple Sclerosis,RRMS,Drug,Phase 3,190,Novartis Investigative Site
277,ukraine,vinnytsya,49.232776,28.480968,352113,0,NCT01892722,Multiple Sclerosis,RRMS,Drug,Phase 3,190,Novartis Investigative Site
278,united kingdom,west midlands,52.5,-1.966667,2440986,278,NCT01892722,Multiple Sclerosis,RRMS,Drug,Phase 3,190,Novartis Investigative Site
279,united kingdom,edinburgh,55.95,-3.2,435794,279,NCT01892722,Multiple Sclerosis,RRMS,Drug,Phase 3,190,Novartis Investigative Site
280,united kingdom,london,51.514125,-0.093689,7421228,280,NCT01892722,Multiple Sclerosis,RRMS,Drug,Phase 3,190,Novartis Investigative Site
281,united states of america,kenmore,47.7575,-122.2427778,19284,73,NCT01703429,Multiple Sclerosis,All,Other,N/A,1000,Bastyr University Clinical Research Center
282,united states of america,cullman,34.1747222,-86.8436111,14796,0,NCT02425644,Multiple Sclerosis,RRMS,Drug,Phase 3,1100,Actelion Investigative Site
283,united states of america,berkeley,37.8716667,-122.2716667,100158,39,NCT02425644,Multiple Sclerosis,RRMS,Drug,Phase 3,1100,Actelion Investigative Site
284,united states of america,carlsbad,33.1580556,-117.3497222,91070,0,NCT02425644,Multiple Sclerosis,RRMS,Drug,Phase 3,1100,Actelion Investigative Site
285,united states of america,pomona,34.0552778,-117.7513889,156183,26,NCT02425644,Multiple Sclerosis,RRMS,Drug,Phase 3,1100,Actelion Investigative Site
286,united states of america,denver,39.7391667,-104.9841667,555981,286,NCT02425644,Multiple Sclerosis,RRMS,Drug,Phase 3,1100,Actelion Investigative Site
287,united states of america,hollywood,26.0108333,-80.1497222,144821,0,NCT02425644,Multiple Sclerosis,RRMS,Drug,Phase 3,1100,Actelion Investigative Site
288,united states of america,naples,26.1416667,-81.795,21498,0,NCT02425644,Multiple Sclerosis,RRMS,Drug,Phase 3,1100,Actelion Investigative Site
289,united states of america,ormond beach,29.2855556,-81.0561111,38455,0,NCT02425644,Multiple Sclerosis,RRMS,Drug,Phase 3,1100,Actelion Investigative Site
290,united states of america,tampa,27.9472222,-82.4586111,324465,0,NCT02425644,Multiple Sclerosis,RRMS,Drug,Phase 3,1100,Actelion Investigative Site
291,united states of america,tampa,27.9472222,-82.4586111,324465,0,NCT02425644,Multiple Sclerosis,RRMS,Drug,Phase 3,1100,Actelion Investigative Site
292,united states of america,northbrook,42.1275,-87.8288889,34322,44,NCT02425644,Multiple Sclerosis,RRMS,Drug,Phase 3,1100,Actelion Investigative Site
293,united states of america,fort wayne,41.1305556,-85.1288889,229715,0,NCT02425644,Multiple Sclerosis,RRMS,Drug,Phase 3,1100,Actelion Investigative Site
294,united states of america,indianapolis,39.7683333,-86.1580556,773283,294,NCT02425644,Multiple Sclerosis,RRMS,Drug,Phase 3,1100,Actelion Investigative Site
295,united states of america,lenexa,38.9536111,-94.7333333,43331,1051,NCT02425644,Multiple Sclerosis,RRMS,Drug,Phase 3,1100,Actelion Investigative Site
296,united states of america,saint louis,38.6272222,-90.1977778,320916,0,NCT02425644,Multiple Sclerosis,RRMS,Drug,Phase 3,1100,Actelion Investigative Site
297,united states of america,albuquerque,35.0844444,-106.6505556,487378,297,NCT02425644,Multiple Sclerosis,RRMS,Drug,Phase 3,1100,Actelion Investigative Site
298,united states of america,charlotte,35.2269444,-80.8433333,598351,298,NCT02425644,Multiple Sclerosis,RRMS,Drug,Phase 3,1100,Actelion Investigative Site
299,united states of america,charlotte,35.2269444,-80.8433333,598351,299,NCT02425644,Multiple Sclerosis,RRMS,Drug,Phase 3,1100,Actelion Investigative Site
300,united states of america,raleigh,35.7719444,-78.6388889,338759,0,NCT02425644,Multiple Sclerosis,RRMS,Drug,Phase 3,1100,Actelion Investigative Site
301,united states of america,akron,41.0813889,-81.5191667,208414,51,NCT02425644,Multiple Sclerosis,RRMS,Drug,Phase 3,1100,Actelion Investigative Site
302,united states of america,columbus,39.9611111,-82.9988889,736836,302,NCT02425644,Multiple Sclerosis,RRMS,Drug,Phase 3,1100,Actelion Investigative Site
303,united states of america,dayton,39.7588889,-84.1916667,159134,0,NCT02425644,Multiple Sclerosis,RRMS,Drug,Phase 3,1100,Actelion Investigative Site
304,united states of america,portland,45.5236111,-122.675,540513,304,NCT02425644,Multiple Sclerosis,RRMS,Drug,Phase 3,1100,Actelion Investigative Site
305,united states of america,franklin,35.925,-86.8688889,49706,704,NCT02425644,Multiple Sclerosis,RRMS,Drug,Phase 3,1100,Actelion Investigative Site
306,united states of america,knoxville,35.9605556,-83.9208333,172474,0,NCT02425644,Multiple Sclerosis,RRMS,Drug,Phase 3,1100,Actelion Investigative Site
307,united states of america,san antonio,29.4238889,-98.4933333,1256810,307,NCT02425644,Multiple Sclerosis,RRMS,Drug,Phase 3,1100,Actelion Investigative Site
308,united states of america,orem,40.2969444,-111.6938889,93060,0,NCT02425644,Multiple Sclerosis,RRMS,Drug,Phase 3,1100,Actelion Investigative Site
309,united states of america,richland,46.2858333,-119.2833333,44869,0,NCT02425644,Multiple Sclerosis,RRMS,Drug,Phase 3,1100,Actelion Investigative Site
310,argentina,buenos aires,-34.5875,-58.6725,3050728,310,NCT02425644,Multiple Sclerosis,RRMS,Drug,Phase 3,1100,Actelion Investigative Site
311,argentina,buenos aires,-34.5875,-58.6725,3050728,311,NCT02425644,Multiple Sclerosis,RRMS,Drug,Phase 3,1100,Actelion Investigative Site
312,argentina,buenos aires,-34.5875,-58.6725,3050728,312,NCT02425644,Multiple Sclerosis,RRMS,Drug,Phase 3,1100,Actelion Investigative Site
313,argentina,godoy cruz,-32.928635,-68.835099,182977,0,NCT02425644,Multiple Sclerosis,RRMS,Drug,Phase 3,1100,Actelion Investigative Site
314,belarus,grodno,53.6813889,23.8147222,356557,0,NCT02425644,Multiple Sclerosis,RRMS,Drug,Phase 3,1100,Actelion Investigative Site
315,belarus,minsk,53.9,27.5666667,1742123,315,NCT02425644,Multiple Sclerosis,RRMS,Drug,Phase 3,1100,Actelion Investigative Site
316,belarus,minsk,53.9,27.5666667,1742123,316,NCT02425644,Multiple Sclerosis,RRMS,Drug,Phase 3,1100,Actelion Investigative Site
317,belarus,vitebsk,55.1925,30.1944444,366299,0,NCT02425644,Multiple Sclerosis,RRMS,Drug,Phase 3,1100,Actelion Investigative Site
318,belarus,vitebsk,55.1925,30.1944444,366299,0,NCT02425644,Multiple Sclerosis,RRMS,Drug,Phase 3,1100,Actelion Investigative Site
319,bosnia and herzegovina,sarajevo,43.85,18.3833333,696726,319,NCT02425644,Multiple Sclerosis,RRMS,Drug,Phase 3,1100,Actelion Investigative Site
320,bosnia and herzegovina,sarajevo,43.85,18.3833333,696726,320,NCT02425644,Multiple Sclerosis,RRMS,Drug,Phase 3,1100,Actelion Investigative Site
321,bosnia and herzegovina,tuzla,44.5427778,18.6694444,142484,319,NCT02425644,Multiple Sclerosis,RRMS,Drug,Phase 3,1100,Actelion Investigative Site
322,bulgaria,pleven,43.4166667,24.6166667,132542,0,NCT02425644,Multiple Sclerosis,RRMS,Drug,Phase 3,1100,Actelion Investigative Site
323,bulgaria,plovdiv,42.15,24.75,332088,0,NCT02425644,Multiple Sclerosis,RRMS,Drug,Phase 3,1100,Actelion Investigative Site
324,bulgaria,sofia,42.6833333,23.3166667,1062065,324,NCT02425644,Multiple Sclerosis,RRMS,Drug,Phase 3,1100,Actelion Investigative Site
325,bulgaria,sofia,42.6833333,23.3166667,1062065,325,NCT02425644,Multiple Sclerosis,RRMS,Drug,Phase 3,1100,Actelion Investigative Site
326,bulgaria,sofia,42.6833333,23.3166667,1062065,326,NCT02425644,Multiple Sclerosis,RRMS,Drug,Phase 3,1100,Actelion Investigative Site
327,bulgaria,sofia,42.6833333,23.3166667,1062065,327,NCT02425644,Multiple Sclerosis,RRMS,Drug,Phase 3,1100,Actelion Investigative Site
328,bulgaria,sofia,42.6833333,23.3166667,1062065,328,NCT02425644,Multiple Sclerosis,RRMS,Drug,Phase 3,1100,Actelion Investigative Site
329,bulgaria,sofia,42.6833333,23.3166667,1062065,329,NCT02425644,Multiple Sclerosis,RRMS,Drug,Phase 3,1100,Actelion Investigative Site
330,bulgaria,varna,43.2166667,27.9166667,307952,0,NCT02425644,Multiple Sclerosis,RRMS,Drug,Phase 3,1100,Actelion Investigative Site
331,canada,edmonton,53.55,-113.5,822319,331,NCT02425644,Multiple Sclerosis,RRMS,Drug,Phase 3,1100,Actelion Investigative Site
332,canada,victoria,48.433333,-123.35,289625,869,NCT02425644,Multiple Sclerosis,RRMS,Drug,Phase 3,1100,Actelion Investigative Site
333,canada,halifax,44.65,-63.6,266012,0,NCT02425644,Multiple Sclerosis,RRMS,Drug,Phase 3,1100,Actelion Investigative Site
334,canada,ottawa,45.416667,-75.7,874433,334,NCT02425644,Multiple Sclerosis,RRMS,Drug,Phase 3,1100,Actelion Investigative Site
335,canada,greenfield park,45.5,-73.483333,16969,747,NCT02425644,Multiple Sclerosis,RRMS,Drug,Phase 3,1100,Actelion Investigative Site
336,canada,regina,50.45,-104.616667,176182,0,NCT02425644,Multiple Sclerosis,RRMS,Drug,Phase 3,1100,Actelion Investigative Site
337,croatia,osijek,45.5511111,18.6938889,88141,0,NCT02425644,Multiple Sclerosis,RRMS,Drug,Phase 3,1100,Actelion Investigative Site
338,croatia,zagreb,45.8,16,698967,338,NCT02425644,Multiple Sclerosis,RRMS,Drug,Phase 3,1100,Actelion Investigative Site
339,croatia,zagreb,45.8,16,698967,339,NCT02425644,Multiple Sclerosis,RRMS,Drug,Phase 3,1100,Actelion Investigative Site
340,czech republic,brno,49.2,16.633333,377407,0,NCT02425644,Multiple Sclerosis,RRMS,Drug,Phase 3,1100,Actelion Investigative Site
341,czech republic,brno,49.2,16.633333,377407,0,NCT02425644,Multiple Sclerosis,RRMS,Drug,Phase 3,1100,Actelion Investigative Site
342,czech republic,hradec kralove,50.207744,15.829455,97427,0,NCT02425644,Multiple Sclerosis,RRMS,Drug,Phase 3,1100,Actelion Investigative Site
343,czech republic,jihlava,49.4,15.583333,50818,0,NCT02425644,Multiple Sclerosis,RRMS,Drug,Phase 3,1100,Actelion Investigative Site
344,czech republic,ostrava,49.811852,18.255282,317136,0,NCT02425644,Multiple Sclerosis,RRMS,Drug,Phase 3,1100,Actelion Investigative Site
345,czech republic,pardubice,50.027778,15.775833,90853,0,NCT02425644,Multiple Sclerosis,RRMS,Drug,Phase 3,1100,Actelion Investigative Site
346,czech republic,prague,50.083333,14.466667,1154508,346,NCT02425644,Multiple Sclerosis,RRMS,Drug,Phase 3,1100,Actelion Investigative Site
347,czech republic,prague,50.083333,14.466667,1154508,347,NCT02425644,Multiple Sclerosis,RRMS,Drug,Phase 3,1100,Actelion Investigative Site
348,czech republic,teplice,50.646569,13.840138,50972,219,NCT02425644,Multiple Sclerosis,RRMS,Drug,Phase 3,1100,Actelion Investigative Site
349,finland,helsinki,60.175556,24.934167,558457,349,NCT02425644,Multiple Sclerosis,RRMS,Drug,Phase 3,1100,Actelion Investigative Site
350,finland,tampere,61.5,23.75,202688,0,NCT02425644,Multiple Sclerosis,RRMS,Drug,Phase 3,1100,Actelion Investigative Site
351,finland,turku,60.45,22.283333,175944,0,NCT02425644,Multiple Sclerosis,RRMS,Drug,Phase 3,1100,Actelion Investigative Site
352,france,bordeaux,44.840439,-0.5805,219311,0,NCT02425644,Multiple Sclerosis,RRMS,Drug,Phase 3,1100,Actelion Investigative Site
353,france,clermont-ferrand,45.779657,3.086281,137364,0,NCT02425644,Multiple Sclerosis,RRMS,Drug,Phase 3,1100,Actelion Investigative Site
354,france,montpellier,43.61092,3.87723,238887,0,NCT02425644,Multiple Sclerosis,RRMS,Drug,Phase 3,1100,Actelion Investigative Site
355,france,nancy,48.69211,6.187756,106857,0,NCT02425644,Multiple Sclerosis,RRMS,Drug,Phase 3,1100,Actelion Investigative Site
356,france,nantes,47.216509,-1.552379,284677,0,NCT02425644,Multiple Sclerosis,RRMS,Drug,Phase 3,1100,Actelion Investigative Site
357,france,nice,43.713644,7.25952,341621,0,NCT02425644,Multiple Sclerosis,RRMS,Drug,Phase 3,1100,Actelion Investigative Site
358,france,strasbourg,48.600381,7.787355,273506,0,NCT02425644,Multiple Sclerosis,RRMS,Drug,Phase 3,1100,Actelion Investigative Site
359,georgia,tbilisi,41.725,44.7908333,1049516,359,NCT02425644,Multiple Sclerosis,RRMS,Drug,Phase 3,1100,Actelion Investigative Site
360,georgia,tbilisi,41.725,44.7908333,1049516,360,NCT02425644,Multiple Sclerosis,RRMS,Drug,Phase 3,1100,Actelion Investigative Site
361,georgia,tbilisi,41.725,44.7908333,1049516,361,NCT02425644,Multiple Sclerosis,RRMS,Drug,Phase 3,1100,Actelion Investigative Site
362,georgia,tbilisi,41.725,44.7908333,1049516,362,NCT02425644,Multiple Sclerosis,RRMS,Drug,Phase 3,1100,Actelion Investigative Site
363,germany,berlin,52.516667,13.4,3398362,363,NCT02425644,Multiple Sclerosis,RRMS,Drug,Phase 3,1100,Actelion Investigative Site
364,germany,erfurt,50.983333,11.033333,196719,0,NCT02425644,Multiple Sclerosis,RRMS,Drug,Phase 3,1100,Actelion Investigative Site
365,germany,leipzig,51.3,12.333333,492637,365,NCT02425644,Multiple Sclerosis,RRMS,Drug,Phase 3,1100,Actelion Investigative Site
366,germany,mainz,50,8.271111,187940,33,NCT02425644,Multiple Sclerosis,RRMS,Drug,Phase 3,1100,Actelion Investigative Site
367,germany,ulm,48.4,10,120745,768,NCT02425644,Multiple Sclerosis,RRMS,Drug,Phase 3,1100,Actelion Investigative Site
368,germany,wiesbaden,50.083333,8.25,272337,33,NCT02425644,Multiple Sclerosis,RRMS,Drug,Phase 3,1100,Actelion Investigative Site
369,greece,athens,37.9833333,23.7333333,729139,369,NCT02425644,Multiple Sclerosis,RRMS,Drug,Phase 3,1100,Actelion Investigative Site
370,greece,athens,37.9833333,23.7333333,729139,370,NCT02425644,Multiple Sclerosis,RRMS,Drug,Phase 3,1100,Actelion Investigative Site
371,greece,athens,37.9833333,23.7333333,729139,371,NCT02425644,Multiple Sclerosis,RRMS,Drug,Phase 3,1100,Actelion Investigative Site
372,greece,athens,37.9833333,23.7333333,729139,372,NCT02425644,Multiple Sclerosis,RRMS,Drug,Phase 3,1100,Actelion Investigative Site
373,hungary,budapest,47.5,19.083333,1708088,373,NCT02425644,Multiple Sclerosis,RRMS,Drug,Phase 3,1100,Actelion Investigative Site
374,hungary,budapest,47.5,19.083333,1708088,374,NCT02425644,Multiple Sclerosis,RRMS,Drug,Phase 3,1100,Actelion Investigative Site
375,hungary,esztergom,47.7928,18.741476,28785,373,NCT02425644,Multiple Sclerosis,RRMS,Drug,Phase 3,1100,Actelion Investigative Site
376,hungary,gyor,47.687281,17.637616,129009,256,NCT02425644,Multiple Sclerosis,RRMS,Drug,Phase 3,1100,Actelion Investigative Site
377,hungary,kistarcsa,47.542839,19.263312,9637,373,NCT02425644,Multiple Sclerosis,RRMS,Drug,Phase 3,1100,Actelion Investigative Site
378,hungary,miskolc,48.1,20.783333,179430,0,NCT02425644,Multiple Sclerosis,RRMS,Drug,Phase 3,1100,Actelion Investigative Site
379,israel,ashkelon,31.669256,34.57149,126819,1105,NCT02425644,Multiple Sclerosis,RRMS,Drug,Phase 3,1100,Actelion Investigative Site
380,israel,haifa,32.815556,34.989167,269961,1105,NCT02425644,Multiple Sclerosis,RRMS,Drug,Phase 3,1100,Actelion Investigative Site
381,israel,jerusalem,31.78,35.23,714685,381,NCT02425644,Multiple Sclerosis,RRMS,Drug,Phase 3,1100,Actelion Investigative Site
382,israel,petah tikwah,32.088611,34.872222,225400,1105,NCT02425644,Multiple Sclerosis,RRMS,Drug,Phase 3,1100,Actelion Investigative Site
383,israel,rishon le zion,31.964167,34.804444,235123,1105,NCT02425644,Multiple Sclerosis,RRMS,Drug,Phase 3,1100,Actelion Investigative Site
384,israel,safed,32.965637,35.500491,30100,0,NCT02425644,Multiple Sclerosis,RRMS,Drug,Phase 3,1100,Actelion Investigative Site
385,italy,cefalu,38.033333,14.016667,14334,1523,NCT02425644,Multiple Sclerosis,RRMS,Drug,Phase 3,1100,Actelion Investigative Site
386,italy,genova,44.416667,8.95,588688,386,NCT02425644,Multiple Sclerosis,RRMS,Drug,Phase 3,1100,Actelion Investigative Site
387,italy,l'aquila,42.366667,13.366667,70967,0,NCT02425644,Multiple Sclerosis,RRMS,Drug,Phase 3,1100,Actelion Investigative Site
388,italy,montichiari,45.416667,10.383333,21041,0,NCT02425644,Multiple Sclerosis,RRMS,Drug,Phase 3,1100,Actelion Investigative Site
389,italy,rome,41.9,12.483333,2643736,389,NCT02425644,Multiple Sclerosis,RRMS,Drug,Phase 3,1100,Actelion Investigative Site
390,italy,rome,41.9,12.483333,2643736,390,NCT02425644,Multiple Sclerosis,RRMS,Drug,Phase 3,1100,Actelion Investigative Site
391,latvia,riga,56.95,24.1,742570,391,NCT02425644,Multiple Sclerosis,RRMS,Drug,Phase 3,1100,Actelion Investigative Site
392,latvia,riga,56.95,24.1,742570,392,NCT02425644,Multiple Sclerosis,RRMS,Drug,Phase 3,1100,Actelion Investigative Site
393,latvia,riga,56.95,24.1,742570,393,NCT02425644,Multiple Sclerosis,RRMS,Drug,Phase 3,1100,Actelion Investigative Site
394,lithuania,kaunas,54.9,23.9,374655,0,NCT02425644,Multiple Sclerosis,RRMS,Drug,Phase 3,1100,Actelion Investigative Site
395,lithuania,klaipeda,55.7172222,21.1175,192314,0,NCT02425644,Multiple Sclerosis,RRMS,Drug,Phase 3,1100,Actelion Investigative Site
396,lithuania,siauliai,55.9333333,23.3166667,130594,0,NCT02425644,Multiple Sclerosis,RRMS,Drug,Phase 3,1100,Actelion Investigative Site
397,mexico,chihuahua,28.633333,-106.083333,708292,397,NCT02425644,Multiple Sclerosis,RRMS,Drug,Phase 3,1100,Actelion Investigative Site
398,mexico,cuauhtemoc,19.417222,-99.156944,531831,398,NCT02425644,Multiple Sclerosis,RRMS,Drug,Phase 3,1100,Actelion Investigative Site
399,mexico,leon,21.116667,-101.666667,1114662,399,NCT02425644,Multiple Sclerosis,RRMS,Drug,Phase 3,1100,Actelion Investigative Site
400,mexico,mexico,19.434167,-99.138611,8720916,400,NCT02425644,Multiple Sclerosis,RRMS,Drug,Phase 3,1100,Actelion Investigative Site
401,mexico,monterrey,25.666667,-100.316667,1122912,401,NCT02425644,Multiple Sclerosis,RRMS,Drug,Phase 3,1100,Actelion Investigative Site
402,poland,bialystok,53.133333,23.15,291855,0,NCT02425644,Multiple Sclerosis,RRMS,Drug,Phase 3,1100,Actelion Investigative Site
403,poland,bydgoszcz,53.127062,18.019987,366452,0,NCT02425644,Multiple Sclerosis,RRMS,Drug,Phase 3,1100,Actelion Investigative Site
404,poland,gdansk,54.36085,18.658291,461865,404,NCT02425644,Multiple Sclerosis,RRMS,Drug,Phase 3,1100,Actelion Investigative Site
405,poland,katowice,50.258415,19.027545,317316,0,NCT02425644,Multiple Sclerosis,RRMS,Drug,Phase 3,1100,Actelion Investigative Site
406,poland,katowice,50.258415,19.027545,317316,0,NCT02425644,Multiple Sclerosis,RRMS,Drug,Phase 3,1100,Actelion Investigative Site
407,poland,konstancin-jeziorna,52.093277,21.118037,16548,414,NCT02425644,Multiple Sclerosis,RRMS,Drug,Phase 3,1100,Actelion Investigative Site
408,poland,ksawerow,51.692173,19.419126,3000,242,NCT02425644,Multiple Sclerosis,RRMS,Drug,Phase 3,1100,Actelion Investigative Site
409,poland,lublin,51.25,22.566667,360044,0,NCT02425644,Multiple Sclerosis,RRMS,Drug,Phase 3,1100,Actelion Investigative Site
410,poland,lublin,51.25,22.566667,360044,0,NCT02425644,Multiple Sclerosis,RRMS,Drug,Phase 3,1100,Actelion Investigative Site
411,poland,poznan,52.416667,16.966667,570352,411,NCT02425644,Multiple Sclerosis,RRMS,Drug,Phase 3,1100,Actelion Investigative Site
412,poland,poznan,52.416667,16.966667,570352,412,NCT02425644,Multiple Sclerosis,RRMS,Drug,Phase 3,1100,Actelion Investigative Site
413,poland,poznan,52.416667,16.966667,570352,413,NCT02425644,Multiple Sclerosis,RRMS,Drug,Phase 3,1100,Actelion Investigative Site
414,poland,warsaw,52.25,21,1651676,414,NCT02425644,Multiple Sclerosis,RRMS,Drug,Phase 3,1100,Actelion Investigative Site
415,poland,wroclaw,51.1,17.033333,634893,415,NCT02425644,Multiple Sclerosis,RRMS,Drug,Phase 3,1100,Actelion Investigative Site
416,portugal,almada,38.679018,-9.156904,34007,2011,NCT02425644,Multiple Sclerosis,RRMS,Drug,Phase 3,1100,Actelion Investigative Site
417,portugal,amadora,38.759711,-9.239708,178856,2011,NCT02425644,Multiple Sclerosis,RRMS,Drug,Phase 3,1100,Actelion Investigative Site
418,portugal,braga,41.550323,-8.420052,121393,0,NCT02425644,Multiple Sclerosis,RRMS,Drug,Phase 3,1100,Actelion Investigative Site
419,portugal,coimbra,40.205642,-8.419551,106580,0,NCT02425644,Multiple Sclerosis,RRMS,Drug,Phase 3,1100,Actelion Investigative Site
420,portugal,porto,41.149606,-8.610993,249630,0,NCT02425644,Multiple Sclerosis,RRMS,Drug,Phase 3,1100,Actelion Investigative Site
421,romania,bucharest,44.433333,26.1,1877155,421,NCT02425644,Multiple Sclerosis,RRMS,Drug,Phase 3,1100,Actelion Investigative Site
422,romania,bucharest,44.433333,26.1,1877155,422,NCT02425644,Multiple Sclerosis,RRMS,Drug,Phase 3,1100,Actelion Investigative Site
423,romania,bucharest,44.433333,26.1,1877155,423,NCT02425644,Multiple Sclerosis,RRMS,Drug,Phase 3,1100,Actelion Investigative Site
424,romania,cluj-napoca,46.766667,23.6,316749,0,NCT02425644,Multiple Sclerosis,RRMS,Drug,Phase 3,1100,Actelion Investigative Site
425,romania,targu-mures,46.55,24.566667,146864,0,NCT02425644,Multiple Sclerosis,RRMS,Drug,Phase 3,1100,Actelion Investigative Site
426,romania,timisoara,45.749444,21.227222,315055,0,NCT02425644,Multiple Sclerosis,RRMS,Drug,Phase 3,1100,Actelion Investigative Site
427,russia,barnaul,53.360556,83.763611,599586,427,NCT02425644,Multiple Sclerosis,RRMS,Drug,Phase 3,1100,Actelion Investigative Site
428,russia,arkhangelsk,64.5401,40.5433,344603,0,NCT02425644,Multiple Sclerosis,RRMS,Drug,Phase 3,1100,Actelion Investigative Site
429,russia,belgorod,50.610743,36.580152,345293,272,NCT02425644,Multiple Sclerosis,RRMS,Drug,Phase 3,1100,Actelion Investigative Site
430,russia,bryansk,53.252089,34.371666,427241,430,NCT02425644,Multiple Sclerosis,RRMS,Drug,Phase 3,1100,Actelion Investigative Site
431,russia,ekaterinburg,56.8519,60.6122,1428042,431,NCT02425644,Multiple Sclerosis,RRMS,Drug,Phase 3,1100,Actelion Investigative Site
432,russia,kazan,55.78874,49.122144,1104750,432,NCT02425644,Multiple Sclerosis,RRMS,Drug,Phase 3,1100,Actelion Investigative Site
433,russia,kemerovo,55.333333,86.083333,477096,433,NCT02425644,Multiple Sclerosis,RRMS,Drug,Phase 3,1100,Actelion Investigative Site
434,russia,kirov,58.596654,49.660068,457387,434,NCT02425644,Multiple Sclerosis,RRMS,Drug,Phase 3,1100,Actelion Investigative Site
435,russia,krasnoyarsk,56.0091,92.8628,907460,435,NCT02425644,Multiple Sclerosis,RRMS,Drug,Phase 3,1100,Actelion Investigative Site
436,russia,kursk,51.737329,36.187349,409435,436,NCT02425644,Multiple Sclerosis,RRMS,Drug,Phase 3,1100,Actelion Investigative Site
437,russia,moscow,55.752222,37.615556,10381288,437,NCT02425644,Multiple Sclerosis,RRMS,Drug,Phase 3,1100,Actelion Investigative Site
438,russia,moscow,55.752222,37.615556,10381288,438,NCT02425644,Multiple Sclerosis,RRMS,Drug,Phase 3,1100,Actelion Investigative Site
439,russia,moscow,55.752222,37.615556,10381288,439,NCT02425644,Multiple Sclerosis,RRMS,Drug,Phase 3,1100,Actelion Investigative Site
440,russia,moscow,55.752222,37.615556,10381288,440,NCT02425644,Multiple Sclerosis,RRMS,Drug,Phase 3,1100,Actelion Investigative Site
441,russia,nizhniy novgorod,56.326944,44.0075,1284176,441,NCT02425644,Multiple Sclerosis,RRMS,Drug,Phase 3,1100,Actelion Investigative Site
442,russia,nizhniy novgorod,56.326944,44.0075,1284176,442,NCT02425644,Multiple Sclerosis,RRMS,Drug,Phase 3,1100,Actelion Investigative Site
443,russia,novgorod,42.652954,130.797066,218681,0,NCT02425644,Multiple Sclerosis,RRMS,Drug,Phase 3,1100,Actelion Investigative Site
444,russia,novosibirsk,55.0415,82.9346,1419016,444,NCT02425644,Multiple Sclerosis,RRMS,Drug,Phase 3,1100,Actelion Investigative Site
445,russia,novosibirsk,55.0415,82.9346,1419016,445,NCT02425644,Multiple Sclerosis,RRMS,Drug,Phase 3,1100,Actelion Investigative Site
446,russia,penza,53.200656,45.004643,512607,446,NCT02425644,Multiple Sclerosis,RRMS,Drug,Phase 3,1100,Actelion Investigative Site
447,russia,perm,58.009282,56.284063,982428,447,NCT02425644,Multiple Sclerosis,RRMS,Drug,Phase 3,1100,Actelion Investigative Site
448,russia,pyatigorsk,44.048611,43.059444,142868,0,NCT02425644,Multiple Sclerosis,RRMS,Drug,Phase 3,1100,Actelion Investigative Site
449,russia,rostov-on-don,47.23135,39.723284,1089261,449,NCT02425644,Multiple Sclerosis,RRMS,Drug,Phase 3,1100,Actelion Investigative Site
450,russia,saint petersburg,59.894444,30.264167,4039751,450,NCT02425644,Multiple Sclerosis,RRMS,Drug,Phase 3,1100,Actelion Investigative Site
451,russia,samara,53.1835,50.1182,1134742,451,NCT02425644,Multiple Sclerosis,RRMS,Drug,Phase 3,1100,Actelion Investigative Site
452,russia,smolensk,54.7818,32.0401,320994,0,NCT02425644,Multiple Sclerosis,RRMS,Drug,Phase 3,1100,Actelion Investigative Site
453,russia,saint petersburg,59.894444,30.264167,4039751,453,NCT02425644,Multiple Sclerosis,RRMS,Drug,Phase 3,1100,Actelion Investigative Site
454,russia,saint petersburg,59.894444,30.264167,4039751,454,NCT02425644,Multiple Sclerosis,RRMS,Drug,Phase 3,1100,Actelion Investigative Site
455,russia,saint petersburg,59.894444,30.264167,4039751,455,NCT02425644,Multiple Sclerosis,RRMS,Drug,Phase 3,1100,Actelion Investigative Site
456,russia,saint petersburg,59.894444,30.264167,4039751,456,NCT02425644,Multiple Sclerosis,RRMS,Drug,Phase 3,1100,Actelion Investigative Site
457,russia,tomsk,56.494167,84.974167,485523,457,NCT02425644,Multiple Sclerosis,RRMS,Drug,Phase 3,1100,Actelion Investigative Site
458,russia,tver,56.860491,35.876027,400216,458,NCT02425644,Multiple Sclerosis,RRMS,Drug,Phase 3,1100,Actelion Investigative Site
459,russia,yaroslavl,57.61977,39.85536,606735,459,NCT02425644,Multiple Sclerosis,RRMS,Drug,Phase 3,1100,Actelion Investigative Site
460,serbia,belgrade,44.818611,20.468056,1115200,460,NCT02425644,Multiple Sclerosis,RRMS,Drug,Phase 3,1100,Actelion Investigative Site
461,serbia,belgrade,44.818611,20.468056,1115200,461,NCT02425644,Multiple Sclerosis,RRMS,Drug,Phase 3,1100,Actelion Investigative Site
462,serbia,belgrade,44.818611,20.468056,1115200,462,NCT02425644,Multiple Sclerosis,RRMS,Drug,Phase 3,1100,Actelion Investigative Site
463,serbia,kragujevac,44.016667,20.916667,149275,0,NCT02425644,Multiple Sclerosis,RRMS,Drug,Phase 3,1100,Actelion Investigative Site
464,serbia,nis,43.324722,21.903333,173775,0,NCT02425644,Multiple Sclerosis,RRMS,Drug,Phase 3,1100,Actelion Investigative Site
465,spain,barcelona,41.398371,2.1741,1570378,465,NCT02425644,Multiple Sclerosis,RRMS,Drug,Phase 3,1100,Actelion Investigative Site
466,spain,barcelona,41.398371,2.1741,1570378,466,NCT02425644,Multiple Sclerosis,RRMS,Drug,Phase 3,1100,Actelion Investigative Site
467,spain,barcelona,41.398371,2.1741,1570378,467,NCT02425644,Multiple Sclerosis,RRMS,Drug,Phase 3,1100,Actelion Investigative Site
468,spain,barcelona,41.398371,2.1741,1570378,468,NCT02425644,Multiple Sclerosis,RRMS,Drug,Phase 3,1100,Actelion Investigative Site
469,spain,girona,41.984444,2.821111,85128,30,NCT02425644,Multiple Sclerosis,RRMS,Drug,Phase 3,1100,Actelion Investigative Site
470,spain,madrid,40.408566,-3.69222,3102644,470,NCT02425644,Multiple Sclerosis,RRMS,Drug,Phase 3,1100,Actelion Investigative Site
471,spain,madrid,40.408566,-3.69222,3102644,471,NCT02425644,Multiple Sclerosis,RRMS,Drug,Phase 3,1100,Actelion Investigative Site
472,spain,majadahonda,40.4717,-3.869451,56060,262,NCT02425644,Multiple Sclerosis,RRMS,Drug,Phase 3,1100,Actelion Investigative Site
473,spain,malaga,36.726666,-4.434802,557875,473,NCT02425644,Multiple Sclerosis,RRMS,Drug,Phase 3,1100,Actelion Investigative Site
474,spain,santa cruz de tenerife,28.460238,-16.280616,193852,0,NCT02425644,Multiple Sclerosis,RRMS,Drug,Phase 3,1100,Actelion Investigative Site
475,spain,sevilla,37.382408,-5.976133,686647,475,NCT02425644,Multiple Sclerosis,RRMS,Drug,Phase 3,1100,Actelion Investigative Site
476,sweden,goteborg,57.716667,11.966667,515253,476,NCT02425644,Multiple Sclerosis,RRMS,Drug,Phase 3,1100,Actelion Investigative Site
477,sweden,stockholm,59.333333,18.05,1253309,477,NCT02425644,Multiple Sclerosis,RRMS,Drug,Phase 3,1100,Actelion Investigative Site
478,sweden,stockholm,59.333333,18.05,1253309,478,NCT02425644,Multiple Sclerosis,RRMS,Drug,Phase 3,1100,Actelion Investigative Site
479,turkey,istanbul,41.018611,28.964722,9797536,479,NCT02425644,Multiple Sclerosis,RRMS,Drug,Phase 3,1100,Actelion Investigative Site
480,turkey,trabzon,41.005,39.726944,244209,0,NCT02425644,Multiple Sclerosis,RRMS,Drug,Phase 3,1100,Actelion Investigative Site
481,ukraine,chernihiv,51.505507,31.284875,307683,0,NCT02425644,Multiple Sclerosis,RRMS,Drug,Phase 3,1100,Actelion Investigative Site
482,ukraine,chernihiv,51.505507,31.284875,307683,0,NCT02425644,Multiple Sclerosis,RRMS,Drug,Phase 3,1100,Actelion Investigative Site
483,ukraine,ivanofrankivsk,48.921504,24.709716,229447,0,NCT02425644,Multiple Sclerosis,RRMS,Drug,Phase 3,1100,Actelion Investigative Site
484,ukraine,ivanofrankivsk,48.921504,24.709716,229447,0,NCT02425644,Multiple Sclerosis,RRMS,Drug,Phase 3,1100,Actelion Investigative Site
485,ukraine,kharkiv,49.980814,36.252718,1430885,485,NCT02425644,Multiple Sclerosis,RRMS,Drug,Phase 3,1100,Actelion Investigative Site
486,ukraine,kharkiv,49.980814,36.252718,1430885,486,NCT02425644,Multiple Sclerosis,RRMS,Drug,Phase 3,1100,Actelion Investigative Site
487,ukraine,kiev,50.433333,30.516667,2514227,487,NCT02425644,Multiple Sclerosis,RRMS,Drug,Phase 3,1100,Actelion Investigative Site
488,ukraine,kiev,50.433333,30.516667,2514227,488,NCT02425644,Multiple Sclerosis,RRMS,Drug,Phase 3,1100,Actelion Investigative Site
489,ukraine,lviv,49.840661,24.030451,729429,489,NCT02425644,Multiple Sclerosis,RRMS,Drug,Phase 3,1100,Actelion Investigative Site
490,ukraine,lviv,49.840661,24.030451,729429,490,NCT02425644,Multiple Sclerosis,RRMS,Drug,Phase 3,1100,Actelion Investigative Site
491,ukraine,odessa,46.463934,30.738551,1016515,491,NCT02425644,Multiple Sclerosis,RRMS,Drug,Phase 3,1100,Actelion Investigative Site
492,ukraine,poltava,49.593727,34.540733,317845,0,NCT02425644,Multiple Sclerosis,RRMS,Drug,Phase 3,1100,Actelion Investigative Site
493,ukraine,ternopil,49.555887,25.605565,218641,0,NCT02425644,Multiple Sclerosis,RRMS,Drug,Phase 3,1100,Actelion Investigative Site
494,ukraine,vinnytsya,49.232776,28.480968,352113,0,NCT02425644,Multiple Sclerosis,RRMS,Drug,Phase 3,1100,Actelion Investigative Site
495,ukraine,zaporizhzhya,47.822892,35.190314,796213,495,NCT02425644,Multiple Sclerosis,RRMS,Drug,Phase 3,1100,Actelion Investigative Site
496,ukraine,zaporizhzhya,47.822892,35.190314,796213,496,NCT02425644,Multiple Sclerosis,RRMS,Drug,Phase 3,1100,Actelion Investigative Site
497,ukraine,zhytomyr,50.264868,28.676691,282190,0,NCT02425644,Multiple Sclerosis,RRMS,Drug,Phase 3,1100,Actelion Investigative Site
498,united kingdom,cardiff,51.5,-3.2,302142,25,NCT02425644,Multiple Sclerosis,RRMS,Drug,Phase 3,1100,Actelion Investigative Site
499,united kingdom,glasgow,55.833333,-4.25,610271,499,NCT02425644,Multiple Sclerosis,RRMS,Drug,Phase 3,1100,Actelion Investigative Site
500,united kingdom,lancashire,53.888996,-2.633778,1461400,500,NCT02425644,Multiple Sclerosis,RRMS,Drug,Phase 3,1100,Actelion Investigative Site
501,united kingdom,salford,53.483333,-2.266667,70905,500,NCT02425644,Multiple Sclerosis,RRMS,Drug,Phase 3,1100,Actelion Investigative Site
502,united kingdom,staffordshire,52.833333,-2,1098300,502,NCT02425644,Multiple Sclerosis,RRMS,Drug,Phase 3,1100,Actelion Investigative Site
503,united states of america,boston,42.3583333,-71.0602778,571281,503,NCT01353547,Multiple Sclerosis,All,Other,N/A,5000,Brigham and Womens Hospital
504,united states of america,cambridge,42.375,-71.1061111,101382,45,NCT01013350,Multiple Sclerosis,All,Drug,Phase 3,1190,Outcome Sciences - Inc
505,united kingdom,glasgow,55.833333,-4.25,610271,505,NCT02737904,Multiple Sclerosis,All,Other,N/A,30,Queen Elizabeth University Hospital
506,united states of america,bethesda,38.9805556,-77.1005556,52801,43,NCT02659956,Multiple Sclerosis,All,Other,N/A,120,National Institutes of Health Clinical Center
507,united states of america,bethesda,38.9805556,-77.1005556,52801,43,NCT00001248,Multiple Sclerosis,All,Other,N/A,920,National Institutes of Health Clinical Center
512,sweden,umea,63.833333,20.25,74005,0,NCT01719159,Multiple Sclerosis,Progressive Multiple Sclerosis,Drug,Phase 2,30,Department of neurology - Umeå University Hospital
513,sweden,uppsala,59.85,17.633333,127734,163,NCT01719159,Multiple Sclerosis,Progressive Multiple Sclerosis,Drug,Phase 2,30,Dept of neurology - Uppsala University Hospital
514,israel,haifa,32.815556,34.989167,269961,1105,NCT01954823,Multiple Sclerosis,All,Device,N/A,100,Carmel Medical Center
515,united states of america,hartford,41.7636111,-72.6855556,124019,0,NCT02759211,Multiple Sclerosis,All,Other,Phase 1,16,Mandell Center for Multiple Sclerosis at the Mount Sinai Rehabilitation Hospital
516,united states of america,miami,25.7738889,-80.1938889,382894,0,NCT01848327,Multiple Sclerosis,RRMS,Other,Phase 2,158,University of Miami Miller School of Medicine
517,france,lomme,50.643579,2.987148,29084,0,NCT02043964,Multiple Sclerosis,CIS,Other,N/A,242,Groupe Hospitalier de l'Institut Catholique de Lille
518,france,bordeaux,44.840439,-0.5805,219311,0,NCT02043964,Multiple Sclerosis,CIS,Other,N/A,242,Centre Hospitalier Universitaire de Bordeaux
519,france,caen,49.197188,-0.326822,115358,0,NCT02043964,Multiple Sclerosis,CIS,Other,N/A,242,Centre Hospitalier Universitaire Caen
520,france,clermont-ferrand,45.779657,3.086281,137364,0,NCT02043964,Multiple Sclerosis,CIS,Other,N/A,242,Centre Hospitalier Universitaire de Clermont-Ferrand
521,france,dijon,47.316667,5.016667,153692,0,NCT02043964,Multiple Sclerosis,CIS,Other,N/A,242,Centre Hospitalier Universitaire de Dijon
522,france,lille,50.632971,3.058585,189746,0,NCT02043964,Multiple Sclerosis,CIS,Other,N/A,242,Centre Hospitalier Régional Universitaire de Lille
523,france,lyon,45.748457,4.846711,463700,523,NCT02043964,Multiple Sclerosis,CIS,Other,N/A,242,Centre Hospitalier Universitaire de Lyon
524,france,marseille,43.285413,5.37606,792823,524,NCT02043964,Multiple Sclerosis,CIS,Other,N/A,242,Hopital de la Timone
525,france,nancy,48.69211,6.187756,106857,0,NCT02043964,Multiple Sclerosis,CIS,Other,N/A,242,Universitée de Nancy
526,france,nantes,47.216509,-1.552379,284677,0,NCT02043964,Multiple Sclerosis,CIS,Other,N/A,242,Centre Hospitalier Universitaire de Nantes
527,france,nice,43.713644,7.25952,341621,0,NCT02043964,Multiple Sclerosis,CIS,Other,N/A,242,Centre Hospitalier Universitaire de Nice
528,france,poissy,48.92902,2.049521,35663,158,NCT02043964,Multiple Sclerosis,CIS,Other,N/A,242,Centre Hospitalier Intercommunal Poissy-St-Germain
529,france,rouen,49.433333,1.083333,108101,0,NCT02043964,Multiple Sclerosis,CIS,Other,N/A,242,Centre Hospitalier Univetrsitaire de Rouen
530,france,strasbourg,48.600381,7.787355,273506,0,NCT02043964,Multiple Sclerosis,CIS,Other,N/A,242,Centre Hospitalier Régional Universitaire de Strasbourg
531,france,valenciennes,50.357065,3.527885,42941,0,NCT02043964,Multiple Sclerosis,CIS,Other,N/A,242,Centre Hospitalier de Valenciennes
532,united states of america,bethesda,38.9805556,-77.1005556,52801,43,NCT01617395,Multiple Sclerosis,All,Other,N/A,2050,National Institutes of Health Clinical Center
533,france,nimes,43.833778,4.359623,137532,0,NCT02636829,Multiple Sclerosis,All,Other,N/A,100,CHRU de Nîmes - Hôpital Universitaire Carémeau
534,united kingdom,london,51.514125,-0.093689,7421228,534,NCT02606630,Multiple Sclerosis,RRMS,Drug,Phase 1,24,Site Reference ID/Investigator# 141463
535,united kingdom,whitechapel,51.516667,-0.05,14862,62,NCT02606630,Multiple Sclerosis,RRMS,Drug,Phase 1,24,Site Reference ID/Investigator# 141461
536,france,rennes,48.111981,-1.674291,213334,0,NCT01065727,Multiple Sclerosis,RRMS,Other,Phase 2,250,CHU Rennes
537,france,brest,48.390756,-4.486165,150554,0,NCT01065727,Multiple Sclerosis,RRMS,Other,Phase 2,250,CHU Cavale Blanche
538,united kingdom,london,51.514125,-0.093689,7421228,538,NCT01910259,Multiple Sclerosis,Progressive Multiple Sclerosis,Drug,Phase 2,440,The National hospital for Neurology and Neurosurgery - University College London
539,united kingdom,edinburgh,55.95,-3.2,435794,539,NCT01910259,Multiple Sclerosis,Progressive Multiple Sclerosis,Drug,Phase 2,440,Anne Rowling Regenerative Neurology Clinic - Royal Infirmary of Edinburgh
540,united kingdom,glasgow,55.833333,-4.25,610271,540,NCT01910259,Multiple Sclerosis,Progressive Multiple Sclerosis,Drug,Phase 2,440,Gartnavel Royal Hospital - 1055 Great Western Road
541,united kingdom,haywards heath,50.983333,-0.1,29660,62,NCT01910259,Multiple Sclerosis,Progressive Multiple Sclerosis,Drug,Phase 2,440,Brighton and Sussex University Hospitals
542,united kingdom,leeds,53.8,-1.583333,455124,542,NCT01910259,Multiple Sclerosis,Progressive Multiple Sclerosis,Drug,Phase 2,440,St James's University Hospital
543,united kingdom,liverpool,53.416667,-3,468946,543,NCT01910259,Multiple Sclerosis,Progressive Multiple Sclerosis,Drug,Phase 2,440,The Walton Centre
544,united kingdom,newcastle,54.988056,-1.619444,289835,0,NCT01910259,Multiple Sclerosis,Progressive Multiple Sclerosis,Drug,Phase 2,440,The Royal Victoria Infirmary
545,united kingdom,nottingham,52.966667,-1.166667,246655,124,NCT01910259,Multiple Sclerosis,Progressive Multiple Sclerosis,Drug,Phase 2,440,Queens Medical Centre
546,united kingdom,oxford,51.75,-1.25,154567,0,NCT01910259,Multiple Sclerosis,Progressive Multiple Sclerosis,Drug,Phase 2,440,John Radcliffe Hospital - Oxford University Hospitals NHS Trust
547,united kingdom,plymouth,50.396389,-4.138611,247298,1578,NCT01910259,Multiple Sclerosis,Progressive Multiple Sclerosis,Drug,Phase 2,440,Derriford Hospital
548,united kingdom,sheffield,53.366667,-1.5,447048,548,NCT01910259,Multiple Sclerosis,Progressive Multiple Sclerosis,Drug,Phase 2,440,Royal Hallamshire Hospital
549,united kingdom,stoke-on-trent,53,-2.183333,260420,502,NCT01910259,Multiple Sclerosis,Progressive Multiple Sclerosis,Drug,Phase 2,440,University Hospital of North Staffordshire
550,united kingdom,truro,50.261667,-5.043333,22044,0,NCT01910259,Multiple Sclerosis,Progressive Multiple Sclerosis,Drug,Phase 2,440,Royal Cornwall Hospital
551,france,paris,48.866667,2.333333,2110694,551,NCT02424396,Multiple Sclerosis,RRMS,Drug,Phase 2,30,Centre d'investigation Clinique - Pitié salpêtrière
552,france,paris,48.866667,2.333333,2110694,552,NCT02424396,Multiple Sclerosis,RRMS,Drug,Phase 2,30,Centre d'investigation clinique Biothérapie Immunologie (CIC-BTi) - Groupe Hospitalier Pitié-Salpêtrière - AP-HP
553,france,paris,48.866667,2.333333,2110694,553,NCT02424396,Multiple Sclerosis,RRMS,Drug,Phase 2,30,Département des maladies du système nerveux et Centre d'investigation clinique - Groupe Hospitalier Pitié-Salpêtrière - AP-HP
562,united states of america,chicago,41.85,-87.65,2841952,562,NCT00273364,Multiple Sclerosis,CIS,Stem Cells,Phase 3,110,Northwestern University - Feinberg School of Medicine
563,france,nice,43.713644,7.25952,341621,0,NCT01866878,Multiple Sclerosis,All,Device,N/A,30,Hôpital Pasteur
564,united kingdom,glasgow,55.833333,-4.25,610271,564,NCT02136485,Multiple Sclerosis,All,Behavioral,N/A,50,NHS Centre for Integrative Care
565,united states of america,portland,45.5236111,-122.675,540513,565,NCT02583386,Multiple Sclerosis,All,Behavioral,N/A,94,VA Portland Health Care System
566,belgium,yvoir,50.333333,4.883333,8169,1012,NCT02266121,Multiple Sclerosis,RRMS,Device,N/A,100,Department of Neurology - CHU Dinant Godinne UcL Namur
567,chile,santiago,-33.45,-70.666667,4837248,567,NCT02273635,Multiple Sclerosis,Progressive Multiple Sclerosis,Drug,Phase 1-Phase 2,68,Multiple Sclerosis Centre - Pontificia Universidad Catolica de Chile
568,mexico,guadalajara,20.666667,-103.333333,1640649,568,NCT02769767,Multiple Sclerosis,All,Biological,N/A,500,Instituto Jalisciense de Cancerología
569,switzerland,basel,47.558395,7.573271,164474,0,NCT02433028,Multiple Sclerosis,CIS,Other,N/A,1200,University Hospital Basel
570,switzerland,aarau,47.389616,8.052354,15007,0,NCT02433028,Multiple Sclerosis,CIS,Other,N/A,1200,Cantonal Hospital Aarau
571,switzerland,bern,46.916667,7.466667,123018,0,NCT02433028,Multiple Sclerosis,CIS,Other,N/A,1200,University Hospital Berne
572,switzerland,geneva,46.195602,6.148113,181492,0,NCT02433028,Multiple Sclerosis,CIS,Other,N/A,1200,University Hospital Geneva
573,switzerland,saint gallen,47.42539,9.377615,75310,0,NCT02433028,Multiple Sclerosis,CIS,Other,N/A,1200,Cantonal Hospital St. Gallen
574,switzerland,lugano,46.006182,8.951142,26327,7,NCT02433028,Multiple Sclerosis,CIS,Other,N/A,1200,Regional Hospital Lugano
575,switzerland,lausanne,46.533333,6.666667,118015,0,NCT02433028,Multiple Sclerosis,CIS,Other,N/A,1200,University Hospital Lausanne
576,canada,calgary,51.083333,-114.083333,968475,576,NCT02087631,Multiple Sclerosis,RRMS,Drug,Phase 1-Phase 2,36,MS Clinic - Foothills Medical Centre  
577,united states of america,west orange,40.7986111,-74.2394444,48131,1,NCT02297932,Multiple Sclerosis,All,Behavioral,N/A,20,Kessler Foundation
578,united states of america,ann arbor,42.2708333,-83.7263889,113810,191,NCT02296346,Multiple Sclerosis,Progressive Multiple Sclerosis,Drug,Phase 1,66,University of Michigan Health Systems
579,iran,tehran,35.7261,51.3304,8846782,579,NCT02463318,Multiple Sclerosis,RRMS,Drug,Phase 2,34,Solaleh Emamgholipour
580,france,bron,45.740218,4.922415,36263,523,NCT02543788,Multiple Sclerosis,All,Other,N/A,60,Unité de Neuro-Ophtalmologie - Hôpital Neurologique - HOSPICES CIVILS DE LYON
581,united states of america,gilbert,33.3527778,-111.7883333,170829,81,NCT02525874,Multiple Sclerosis,RRMS,Drug,Phase 3,200,Biogen Investigative Site
582,united states of america,long beach,33.7669444,-118.1883333,482618,582,NCT02525874,Multiple Sclerosis,RRMS,Drug,Phase 3,200,Biogen Investigative Site
583,united states of america,ocala,29.1869444,-82.1402778,49558,0,NCT02525874,Multiple Sclerosis,RRMS,Drug,Phase 3,200,Biogen Investigative Site
584,united states of america,tampa,27.9472222,-82.4586111,324465,0,NCT02525874,Multiple Sclerosis,RRMS,Drug,Phase 3,200,Biogen Investigative Site
585,united states of america,tampa,27.9472222,-82.4586111,324465,0,NCT02525874,Multiple Sclerosis,RRMS,Drug,Phase 3,200,Biogen Investigative Site
586,united states of america,atlanta,33.7488889,-84.3880556,422908,586,NCT02525874,Multiple Sclerosis,RRMS,Drug,Phase 3,200,Biogen Investigative Site
587,united states of america,overland park,38.9822222,-94.6705556,166010,1051,NCT02525874,Multiple Sclerosis,RRMS,Drug,Phase 3,200,Biogen Investigative Site
588,united states of america,baltimore,39.2902778,-76.6125,610892,588,NCT02525874,Multiple Sclerosis,RRMS,Drug,Phase 3,200,Biogen Investigative Site
589,united states of america,traverse city,44.7630556,-85.6205556,14425,0,NCT02525874,Multiple Sclerosis,RRMS,Drug,Phase 3,200,Biogen Investigative Site
590,united states of america,raleigh,35.7719444,-78.6388889,338759,0,NCT02525874,Multiple Sclerosis,RRMS,Drug,Phase 3,200,Biogen Investigative Site
591,united states of america,spartanburg,34.9494444,-81.9322222,37992,0,NCT02525874,Multiple Sclerosis,RRMS,Drug,Phase 3,200,Biogen Investigative Site
592,united states of america,san antonio,29.4238889,-98.4933333,1256810,592,NCT02525874,Multiple Sclerosis,RRMS,Drug,Phase 3,200,Biogen Investigative Site
593,united states of america,salt lake city,40.7608333,-111.8902778,178026,0,NCT02525874,Multiple Sclerosis,RRMS,Drug,Phase 3,200,Biogen Investigative Site
594,united states of america,tacoma,47.2530556,-122.4430556,196957,73,NCT02525874,Multiple Sclerosis,RRMS,Drug,Phase 3,200,Biogen Investigative Site
595,belgium,la louviere,50.466667,4.183333,76668,1012,NCT02525874,Multiple Sclerosis,RRMS,Drug,Phase 3,200,Biogen Investigative Site
596,bulgaria,pleven,43.4166667,24.6166667,132542,0,NCT02525874,Multiple Sclerosis,RRMS,Drug,Phase 3,200,Biogen Investigative Site
597,bulgaria,pleven,43.4166667,24.6166667,132542,0,NCT02525874,Multiple Sclerosis,RRMS,Drug,Phase 3,200,Biogen Investigative Site
598,bulgaria,sofia,42.6833333,23.3166667,1062065,598,NCT02525874,Multiple Sclerosis,RRMS,Drug,Phase 3,200,Biogen Investigative Site
599,bulgaria,sofia,42.6833333,23.3166667,1062065,599,NCT02525874,Multiple Sclerosis,RRMS,Drug,Phase 3,200,Biogen Investigative Site
600,croatia,vukovar,45.3433333,18.9997222,29584,0,NCT02525874,Multiple Sclerosis,RRMS,Drug,Phase 3,200,Biogen Investigative Site
601,croatia,zagreb,45.8,16,698967,601,NCT02525874,Multiple Sclerosis,RRMS,Drug,Phase 3,200,Biogen Investigative Site
602,lithuania,kaunas,54.9,23.9,374655,0,NCT02525874,Multiple Sclerosis,RRMS,Drug,Phase 3,200,Biogen Investigative Site
603,lithuania,klaipeda,55.7172222,21.1175,192314,0,NCT02525874,Multiple Sclerosis,RRMS,Drug,Phase 3,200,Biogen Investigative Site
604,lithuania,vilnius,54.6833333,25.3166667,542381,604,NCT02525874,Multiple Sclerosis,RRMS,Drug,Phase 3,200,Biogen Investigative Site
605,poland,katowice,50.258415,19.027545,317316,0,NCT02525874,Multiple Sclerosis,RRMS,Drug,Phase 3,200,Biogen Investigative Site
606,poland,katowice,50.258415,19.027545,317316,0,NCT02525874,Multiple Sclerosis,RRMS,Drug,Phase 3,200,Biogen Investigative Site
607,united states of america,portland,45.5236111,-122.675,540513,607,NCT02149706,Multiple Sclerosis,Progressive Multiple Sclerosis,Biological,Phase 2,150,OHSU MS Center
608,united states of america,baltimore,39.2902778,-76.6125,610892,608,NCT02253264,Multiple Sclerosis,Progressive Multiple Sclerosis,Drug,Phase 1,12,The Johns Hopkins Hospital
609,switzerland,lugano,46.006182,8.951142,26327,7,NCT02082002,Multiple Sclerosis,All,Behavioral,N/A,100,Ospedale Regionale di Lugano - Civico
610,united states of america,birmingham,33.5205556,-86.8025,231621,0,NCT02047097,Multiple Sclerosis,All,Drug,Phase 4,5000,Biogen Investigative Site
611,united states of america,gilbert,33.3527778,-111.7883333,170829,81,NCT02047097,Multiple Sclerosis,All,Drug,Phase 4,5000,Biogen Investigative Site
612,united states of america,phoenix,33.4483333,-112.0733333,1428509,612,NCT02047097,Multiple Sclerosis,All,Drug,Phase 4,5000,Biogen Investigative Site
613,united states of america,phoenix,33.4483333,-112.0733333,1428509,613,NCT02047097,Multiple Sclerosis,All,Drug,Phase 4,5000,Biogen Investigative Site
614,united states of america,phoenix,33.4483333,-112.0733333,1428509,614,NCT02047097,Multiple Sclerosis,All,Drug,Phase 4,5000,Biogen Investigative Site
615,united states of america,tucson,32.2216667,-110.9258333,518907,615,NCT02047097,Multiple Sclerosis,All,Drug,Phase 4,5000,Biogen Investigative Site
616,united states of america,fullerton,33.8702778,-117.9244444,135353,102,NCT02047097,Multiple Sclerosis,All,Drug,Phase 4,5000,Biogen Investigative Site
617,united states of america,loma linda,34.0483333,-117.2602778,20802,0,NCT02047097,Multiple Sclerosis,All,Drug,Phase 4,5000,Biogen Investigative Site
618,united states of america,newport beach,33.6188889,-117.9280556,78702,102,NCT02047097,Multiple Sclerosis,All,Drug,Phase 4,5000,Biogen Investigative Site
619,united states of america,aurora,39.7294444,-104.8313889,299780,286,NCT02047097,Multiple Sclerosis,All,Drug,Phase 4,5000,Biogen Investigative Site
620,united states of america,denver,39.7391667,-104.9841667,555981,620,NCT02047097,Multiple Sclerosis,All,Drug,Phase 4,5000,Biogen Investigative Site
621,united states of america,danbury,41.3947222,-73.4544444,78565,1,NCT02047097,Multiple Sclerosis,All,Drug,Phase 4,5000,Biogen Investigative Site
622,united states of america,dover,39.1580556,-75.5247222,33286,29,NCT02047097,Multiple Sclerosis,All,Drug,Phase 4,5000,Biogen Investigative Site
623,united states of america,newark,39.6836111,-75.75,30238,29,NCT02047097,Multiple Sclerosis,All,Drug,Phase 4,5000,Biogen Investigative Site
624,united states of america,washington,38.895,-77.0366667,552433,624,NCT02047097,Multiple Sclerosis,All,Drug,Phase 4,5000,Biogen Investigative Site
625,united states of america,washington,38.895,-77.0366667,552433,625,NCT02047097,Multiple Sclerosis,All,Drug,Phase 4,5000,Biogen Investigative Site
626,united states of america,lighthouse point,26.2752778,-80.0875,11237,0,NCT02047097,Multiple Sclerosis,All,Drug,Phase 4,5000,Biogen Investigative Site
627,united states of america,maitland,28.6275,-81.3633333,11686,0,NCT02047097,Multiple Sclerosis,All,Drug,Phase 4,5000,Biogen Investigative Site
628,united states of america,port charlotte,26.9758333,-82.0908333,49333,0,NCT02047097,Multiple Sclerosis,All,Drug,Phase 4,5000,Biogen Investigative Site
629,united states of america,sarasota,27.3361111,-82.5308333,53327,0,NCT02047097,Multiple Sclerosis,All,Drug,Phase 4,5000,Biogen Investigative Site
630,united states of america,saint petersburg,27.7705556,-82.6794444,246316,0,NCT02047097,Multiple Sclerosis,All,Drug,Phase 4,5000,Biogen Investigative Site
631,united states of america,tampa,27.9472222,-82.4586111,324465,0,NCT02047097,Multiple Sclerosis,All,Drug,Phase 4,5000,Biogen Investigative Site
632,united states of america,atlanta,33.7488889,-84.3880556,422908,632,NCT02047097,Multiple Sclerosis,All,Drug,Phase 4,5000,Biogen Investigative Site
633,united states of america,augusta,33.4708333,-81.975,195844,0,NCT02047097,Multiple Sclerosis,All,Drug,Phase 4,5000,Biogen Investigative Site
634,united states of america,savannah,32.0833333,-81.1,126119,0,NCT02047097,Multiple Sclerosis,All,Drug,Phase 4,5000,Biogen Investigative Site
635,united states of america,chicago,41.85,-87.65,2841952,635,NCT02047097,Multiple Sclerosis,All,Drug,Phase 4,5000,Biogen Investigative Site
636,united states of america,chicago,41.85,-87.65,2841952,636,NCT02047097,Multiple Sclerosis,All,Drug,Phase 4,5000,Biogen Investigative Site
637,united states of america,peoria,40.6936111,-89.5888889,113004,0,NCT02047097,Multiple Sclerosis,All,Drug,Phase 4,5000,Biogen Investigative Site
638,united states of america,winfield,41.8616667,-88.1608333,9802,44,NCT02047097,Multiple Sclerosis,All,Drug,Phase 4,5000,Biogen Investigative Site
639,united states of america,elkhart,41.6819444,-85.9766667,51400,0,NCT02047097,Multiple Sclerosis,All,Drug,Phase 4,5000,Biogen Investigative Site
640,united states of america,des moines,41.6005556,-93.6088889,193180,0,NCT02047097,Multiple Sclerosis,All,Drug,Phase 4,5000,Biogen Investigative Site
641,united states of america,des moines,41.6005556,-93.6088889,193180,0,NCT02047097,Multiple Sclerosis,All,Drug,Phase 4,5000,Biogen Investigative Site
642,united states of america,lenexa,38.9536111,-94.7333333,43331,1051,NCT02047097,Multiple Sclerosis,All,Drug,Phase 4,5000,Biogen Investigative Site
643,united states of america,henderson,37.8361111,-87.59,27495,0,NCT02047097,Multiple Sclerosis,All,Drug,Phase 4,5000,Biogen Investigative Site
644,united states of america,louisville,38.2541667,-85.7594444,243639,0,NCT02047097,Multiple Sclerosis,All,Drug,Phase 4,5000,Biogen Investigative Site
645,united states of america,hammond,30.5041667,-90.4611111,17812,113,NCT02047097,Multiple Sclerosis,All,Drug,Phase 4,5000,Biogen Investigative Site
646,united states of america,new orleans,29.9544444,-90.075,459336,646,NCT02047097,Multiple Sclerosis,All,Drug,Phase 4,5000,Biogen Investigative Site
647,united states of america,rockport,44.1844444,-69.0766667,1318,0,NCT02047097,Multiple Sclerosis,All,Drug,Phase 4,5000,Biogen Investigative Site
648,united states of america,baltimore,39.2902778,-76.6125,610892,648,NCT02047097,Multiple Sclerosis,All,Drug,Phase 4,5000,Biogen Investigative Site
649,united states of america,baltimore,39.2902778,-76.6125,610892,649,NCT02047097,Multiple Sclerosis,All,Drug,Phase 4,5000,Biogen Investigative Site
650,united states of america,glen burnie,39.1625,-76.625,40317,5,NCT02047097,Multiple Sclerosis,All,Drug,Phase 4,5000,Biogen Investigative Site
651,united states of america,hagerstown,39.6416667,-77.7202778,37313,0,NCT02047097,Multiple Sclerosis,All,Drug,Phase 4,5000,Biogen Investigative Site
652,united states of america,rockville,39.0838889,-77.1530556,60646,43,NCT02047097,Multiple Sclerosis,All,Drug,Phase 4,5000,Biogen Investigative Site
653,united states of america,boston,42.3583333,-71.0602778,571281,653,NCT02047097,Multiple Sclerosis,All,Drug,Phase 4,5000,Biogen Investigative Site
654,united states of america,boston,42.3583333,-71.0602778,571281,654,NCT02047097,Multiple Sclerosis,All,Drug,Phase 4,5000,Biogen Investigative Site
655,united states of america,foxboro,42.0583333,-71.25,16693,45,NCT02047097,Multiple Sclerosis,All,Drug,Phase 4,5000,Biogen Investigative Site
656,united states of america,lexington,42.4472222,-71.225,30661,45,NCT02047097,Multiple Sclerosis,All,Drug,Phase 4,5000,Biogen Investigative Site
657,united states of america,worcester,42.2625,-71.8027778,177216,45,NCT02047097,Multiple Sclerosis,All,Drug,Phase 4,5000,Biogen Investigative Site
658,united states of america,detroit,42.3313889,-83.0458333,884941,658,NCT02047097,Multiple Sclerosis,All,Drug,Phase 4,5000,Biogen Investigative Site
659,united states of america,east lansing,42.7369444,-84.4838889,48371,0,NCT02047097,Multiple Sclerosis,All,Drug,Phase 4,5000,Biogen Investigative Site
660,united states of america,edina,44.8897222,-93.3497222,45945,0,NCT02047097,Multiple Sclerosis,All,Drug,Phase 4,5000,Biogen Investigative Site
661,united states of america,golden valley,45.0097222,-93.3488889,20325,0,NCT02047097,Multiple Sclerosis,All,Drug,Phase 4,5000,Biogen Investigative Site
662,united states of america,ocean springs,30.4111111,-88.8277778,17659,0,NCT02047097,Multiple Sclerosis,All,Drug,Phase 4,5000,Biogen Investigative Site
663,united states of america,saint louis,38.6272222,-90.1977778,320916,0,NCT02047097,Multiple Sclerosis,All,Drug,Phase 4,5000,Biogen Investigative Site
664,united states of america,lincoln,40.8,-96.6666667,242072,0,NCT02047097,Multiple Sclerosis,All,Drug,Phase 4,5000,Biogen Investigative Site
665,united states of america,lincoln,40.8,-96.6666667,242072,0,NCT02047097,Multiple Sclerosis,All,Drug,Phase 4,5000,Biogen Investigative Site
666,united states of america,las vegas,36.175,-115.1363889,540111,666,NCT02047097,Multiple Sclerosis,All,Drug,Phase 4,5000,Biogen Investigative Site
667,united states of america,flemington,40.5122222,-74.8597222,4581,29,NCT02047097,Multiple Sclerosis,All,Drug,Phase 4,5000,Biogen Investigative Site
668,united states of america,livingston,40.7958333,-74.3152778,27853,1,NCT02047097,Multiple Sclerosis,All,Drug,Phase 4,5000,Biogen Investigative Site
669,united states of america,new brunswick,40.4861111,-74.4522222,50633,1,NCT02047097,Multiple Sclerosis,All,Drug,Phase 4,5000,Biogen Investigative Site
670,united states of america,newark,40.7355556,-74.1727778,280123,1,NCT02047097,Multiple Sclerosis,All,Drug,Phase 4,5000,Biogen Investigative Site
671,united states of america,stratford,39.8266667,-75.0158333,7040,29,NCT02047097,Multiple Sclerosis,All,Drug,Phase 4,5000,Biogen Investigative Site
672,united states of america,toms river,39.9536111,-74.1983333,119088,1,NCT02047097,Multiple Sclerosis,All,Drug,Phase 4,5000,Biogen Investigative Site
673,united states of america,cedarhurst,40.6227778,-73.7247222,6592,1,NCT02047097,Multiple Sclerosis,All,Drug,Phase 4,5000,Biogen Investigative Site
674,united states of america,east meadow,40.7138889,-73.5594444,37427,1,NCT02047097,Multiple Sclerosis,All,Drug,Phase 4,5000,Biogen Investigative Site
675,united states of america,kingston,41.9269444,-73.9977778,23174,0,NCT02047097,Multiple Sclerosis,All,Drug,Phase 4,5000,Biogen Investigative Site
676,united states of america,new york,40.7141667,-74.0063889,8107916,676,NCT02047097,Multiple Sclerosis,All,Drug,Phase 4,5000,Biogen Investigative Site
677,united states of america,new york,40.7141667,-74.0063889,8107916,677,NCT02047097,Multiple Sclerosis,All,Drug,Phase 4,5000,Biogen Investigative Site
678,united states of america,patchogue,40.7655556,-73.0155556,12030,0,NCT02047097,Multiple Sclerosis,All,Drug,Phase 4,5000,Biogen Investigative Site
679,united states of america,plainview,40.7763889,-73.4677778,25174,1,NCT02047097,Multiple Sclerosis,All,Drug,Phase 4,5000,Biogen Investigative Site
680,united states of america,syracuse,43.0480556,-76.1477778,141830,0,NCT02047097,Multiple Sclerosis,All,Drug,Phase 4,5000,Biogen Investigative Site
681,united states of america,asheville,35.6008333,-82.5541667,68795,0,NCT02047097,Multiple Sclerosis,All,Drug,Phase 4,5000,Biogen Investigative Site
682,united states of america,greensboro,36.0725,-79.7922222,231769,0,NCT02047097,Multiple Sclerosis,All,Drug,Phase 4,5000,Biogen Investigative Site
683,united states of america,pinehurst,35.1952778,-79.4697222,11523,0,NCT02047097,Multiple Sclerosis,All,Drug,Phase 4,5000,Biogen Investigative Site
684,united states of america,raleigh,35.7719444,-78.6388889,338759,0,NCT02047097,Multiple Sclerosis,All,Drug,Phase 4,5000,Biogen Investigative Site
685,united states of america,bismarck,46.8083333,-100.7833333,56706,0,NCT02047097,Multiple Sclerosis,All,Drug,Phase 4,5000,Biogen Investigative Site
686,united states of america,canton,40.7988889,-81.3786111,78160,51,NCT02047097,Multiple Sclerosis,All,Drug,Phase 4,5000,Biogen Investigative Site
687,united states of america,cleveland,41.4994444,-81.6955556,449514,687,NCT02047097,Multiple Sclerosis,All,Drug,Phase 4,5000,Biogen Investigative Site
688,united states of america,oklahoma city,35.4675,-97.5161111,532950,688,NCT02047097,Multiple Sclerosis,All,Drug,Phase 4,5000,Biogen Investigative Site
689,united states of america,oklahoma city,35.4675,-97.5161111,532950,689,NCT02047097,Multiple Sclerosis,All,Drug,Phase 4,5000,Biogen Investigative Site
690,united states of america,tulsa,36.1538889,-95.9925,382005,0,NCT02047097,Multiple Sclerosis,All,Drug,Phase 4,5000,Biogen Investigative Site
691,united states of america,portland,45.5236111,-122.675,540513,691,NCT02047097,Multiple Sclerosis,All,Drug,Phase 4,5000,Biogen Investigative Site
692,united states of america,portland,45.5236111,-122.675,540513,692,NCT02047097,Multiple Sclerosis,All,Drug,Phase 4,5000,Biogen Investigative Site
693,united states of america,allentown,40.6083333,-75.4905556,105519,29,NCT02047097,Multiple Sclerosis,All,Drug,Phase 4,5000,Biogen Investigative Site
694,united states of america,meadowbrook,40.1125,-75.0786111,18571,29,NCT02047097,Multiple Sclerosis,All,Drug,Phase 4,5000,Biogen Investigative Site
695,united states of america,monroeville,40.4211111,-79.7883333,28386,0,NCT02047097,Multiple Sclerosis,All,Drug,Phase 4,5000,Biogen Investigative Site
696,united states of america,philadelphia,39.9522222,-75.1641667,1453268,696,NCT02047097,Multiple Sclerosis,All,Drug,Phase 4,5000,Biogen Investigative Site
697,united states of america,pittsburgh,40.4405556,-79.9961111,319494,0,NCT02047097,Multiple Sclerosis,All,Drug,Phase 4,5000,Biogen Investigative Site
698,united states of america,tarentum,40.6013889,-79.76,4530,0,NCT02047097,Multiple Sclerosis,All,Drug,Phase 4,5000,Biogen Investigative Site
699,united states of america,willow grove,40.1438889,-75.1161111,16129,29,NCT02047097,Multiple Sclerosis,All,Drug,Phase 4,5000,Biogen Investigative Site
700,united states of america,columbia,34.0005556,-81.035,117722,0,NCT02047097,Multiple Sclerosis,All,Drug,Phase 4,5000,Biogen Investigative Site
701,united states of america,spartanburg,34.9494444,-81.9322222,37992,0,NCT02047097,Multiple Sclerosis,All,Drug,Phase 4,5000,Biogen Investigative Site
702,united states of america,knoxville,35.9605556,-83.9208333,172474,0,NCT02047097,Multiple Sclerosis,All,Drug,Phase 4,5000,Biogen Investigative Site
703,united states of america,knoxville,35.9605556,-83.9208333,172474,0,NCT02047097,Multiple Sclerosis,All,Drug,Phase 4,5000,Biogen Investigative Site
704,united states of america,nashville,36.1658333,-86.7844444,530852,704,NCT02047097,Multiple Sclerosis,All,Drug,Phase 4,5000,Biogen Investigative Site
705,united states of america,colleyville,32.8808333,-97.1547222,22325,53,NCT02047097,Multiple Sclerosis,All,Drug,Phase 4,5000,Biogen Investigative Site
706,united states of america,norfolk,36.8466667,-76.2855556,246216,1285,NCT02047097,Multiple Sclerosis,All,Drug,Phase 4,5000,Biogen Investigative Site
707,united states of america,norfolk,36.8466667,-76.2855556,246216,1285,NCT02047097,Multiple Sclerosis,All,Drug,Phase 4,5000,Biogen Investigative Site
708,united states of america,richmond,37.5536111,-77.4605556,190886,0,NCT02047097,Multiple Sclerosis,All,Drug,Phase 4,5000,Biogen Investigative Site
709,united states of america,kirkland,47.6816667,-122.2075,45778,73,NCT02047097,Multiple Sclerosis,All,Drug,Phase 4,5000,Biogen Investigative Site
